,City,ID,Lat,Lon
0,Friedrichshafen,2924585,47.650002,9.48333
1,Freiburg,2925177,47.995899,7.85222
2,Stuttgart,2825297,48.782318,9.17702
3,Wuerzburg,2805615,49.787781,9.93611
4,Pforzheim,2853969,48.883331,8.7
5,Crailsheim,2939797,49.134441,10.07193
6,Ulm,2820256,48.398411,9.99155
7,Memmingen,2871992,47.983719,10.18527
8,Augsburg,2954172,48.366669,10.88333
9,Rotthalmunster,2843682,48.35825,13.20162
10,Muenchen,2867714,48.137428,11.57549
11,Regensburg,2849483,49.014999,12.09556
12,Bayreuth,2951825,49.948059,11.57833
13,Nuremberg,2861650,49.447781,11.06833
14,Zwickau,2803560,50.73333,12.5
15,Cottbus,2939811,51.76667,14.33333
16,Chemnitz,2940132,50.833328,12.91667
17,Leipzig,2879139,51.339619,12.37129
18,Erfurt,2929670,50.98333,11.03333
19,Magdeburg,2874545,52.166672,11.66667
20,Frankfurt am Main,2925533,50.116669,8.68333
21,Marburg,2158777,-27.566669,152.583328
22,Kaiserslautern,2894003,49.450001,7.75
23,Koblenz,2660123,47.609718,8.2375
24,Kassel,2892518,51.316669,9.5
25,Bonn,2946447,50.73333,7.1
26,Dusseldorf,2934246,51.221722,6.77616
27,Meppen,2871845,52.690639,7.29097
28,Berlin,2950158,54.033329,10.45
29,Dortmund,2935517,51.51667,7.45
30,Muenster,2867543,51.96236,7.62571
31,Bielefeld,2949186,52.033329,8.53333
32,Hannover,2910831,52.370522,9.73322
33,Bremen,2944387,53.083328,8.83333
34,Hamburg,2911298,53.549999,10.0
35,Kiel,2891122,54.321331,10.13489
36,Rostock,2844588,54.088699,12.14049
37,Aachen,3247449,50.776642,6.08342
38,Fulda,2923822,50.55162,9.67518
39,Tor,359678,28.23638,33.625401
40,Suez,359796,29.973709,32.526272
41,Cairo,360630,30.06263,31.24967
42,El Arish,2167618,-17.816669,146.0
43,Port Said,358619,31.25654,32.284119
44,Alexandria,1023365,-33.653461,26.41268
45,Marsa Matruh,352733,31.352539,27.245279
46,Remada,2467783,32.31662,10.39551
47,Tataouine,2464701,32.929668,10.45177
48,Mellita,2469329,33.863178,10.80154
49,Kebili,2468018,33.704391,8.96903
50,Sfax,2467454,34.740559,10.76028
51,Sidi Bouzid,2465840,35.038231,9.48494
52,Mahdia,2473572,35.504719,11.06222
53,Thala,2464795,35.572441,8.67031
54,El Kef,2473634,36.17424,8.70486
55,Enfida,2473358,36.135281,10.38083
56,Beja,2270985,38.01506,-7.86323
57,Adrar,2508813,27.87429,-0.29388
58,Timimoun,2476403,29.26388,0.23098
59,El Golea,2498305,30.566669,2.88333
60,Hassi Messaoud,2494029,31.68041,6.07286
61,Bechar,2505530,31.616671,-2.21667
62,Ghardaïa,2496049,32.49094,3.67347
63,Ain Sefra,2507943,32.75,-0.58333
64,El Oued,2497411,33.356079,6.86319
65,El Bayadh,2498543,33.683182,1.01927
66,Mecheria,2489865,33.544529,-0.28117
67,Laghouat,2491191,33.799999,2.86514
68,Djelfa,2500017,34.672791,3.263
69,Biskra,2503826,34.85038,5.72805
70,Maghnia,2490584,34.849689,-1.72753
71,Sidi Bel Abbes,2481007,35.189941,-0.63085
72,Bou Saâda,2502385,35.208549,4.17402
73,Ksar Chellala,2491335,35.212219,2.31889
74,Relizane,2483668,35.737339,0.55599
75,Oran,1261037,25.383329,80.75
76,Khenchela,2491889,35.435829,7.14333
77,Setif,2481700,36.19112,5.41373
78,Algiers,2507480,36.752499,3.04197
79,Constantine,2501152,36.365002,6.61472
80,Bouira,2502958,36.374889,3.902
81,Ténès,2477148,36.510761,1.30809
82,Bejaia,2505329,36.755871,5.08433
83,Annaba,2506999,36.900002,7.76667
84,Ceuta,2519582,35.890282,-5.3075
85,Errachidia,2549340,31.75,-4.5
86,Midelt,2542227,32.6852,-4.74512
87,Beni-Mellal,2555742,32.5,-6.33333
88,Nouaceur,6547299,33.458389,-7.64726
89,Casablanca,2553604,33.592781,-7.61916
90,Meknes,2542715,33.89352,-5.54727
91,Rabat,2538474,33.991112,-6.84006
92,Taza,2529313,34.25,-3.75
93,Al Hoceima,2558545,35.243328,-3.93092
94,Chefchaouene,2553455,35.168781,-5.2636
95,Tabuk,101628,28.383329,36.583328
96,Al Qurayyat,108648,31.33176,37.342819
97,Aqaba,250774,29.52667,35.007778
98,At Tafilah,250198,30.837521,35.60442
99,Amman,250441,31.955219,35.94503
100,Irbid,248944,32.5,35.833328
101,Tel Aviv,293397,32.080879,34.780571
102,Haifa,294801,32.815559,34.98917
103,Tripoli,2210247,32.875191,13.18746
104,Beirut,276781,33.888939,35.494419
105,Damascus,170654,33.510201,36.291279
106,Hama,1854585,32.650002,128.816666
107,Latakia,173576,35.514839,35.77684
108,Al Hasakah,173811,36.502369,40.747719
109,Yerevan,616051,40.183331,44.5
110,Gyumri,616635,40.794201,43.84528
111,Tbilisi,611717,41.694111,44.833679
112,Batumi,615532,41.64159,41.635929
113,Zestaponi,610864,42.110001,43.052502
114,Zugdidi,610824,42.508801,41.87088
115,Gudermes,558118,43.356941,46.105282
116,Vladikavkaz,473249,43.036671,44.667782
117,Nalchik,523523,43.498058,43.618889
118,Teberda,483873,43.445648,41.744801
119,Adler,584243,43.43,39.919998
120,Kizlyar,547840,43.846939,46.715
121,Budennovsk,571306,44.78389,44.165829
122,Nevinnomyssk,522377,44.626667,41.945278
123,Maykop,528293,44.60778,40.105831
124,Anapa,582182,44.890839,37.323898
125,Dzhangala,609965,49.216671,50.333328
126,Oral,608668,51.233334,51.366669
127,Sorochinsk,490554,52.4338,53.158298
128,Lagan,2697944,56.916672,13.98333
129,Svetlograd,485698,45.335281,42.854721
130,Astrakhan,1526059,51.528332,69.797218
131,Iki-Burul,557413,45.820831,44.647221
132,Yashkul,468747,46.171101,45.343498
133,Tikhoretsk,483029,45.854721,40.125278
134,Primorsko-Akhtarsk,505259,46.049702,38.174702
135,Yusta,466135,47.121101,46.301601
136,Remontnoye,502185,46.561401,43.650101
137,Zimovniki,462522,47.148335,42.463333
138,Gigant,561499,56.44389,41.296112
139,Yeysk,466885,46.698891,38.279167
140,Taganrog,484907,47.236172,38.896881
141,Malyye Derbety,530196,47.95472,44.680828
142,Kotelnikovo,543728,47.631668,43.146111
143,Konstantinovsk,545277,47.582779,41.09222
144,Zaporizhzhya,687700,47.816669,35.183331
145,Urda,2510083,39.4118,-3.71493
146,Verkhniy Baskunchak,475196,48.225639,46.721699
147,Volgograd,472757,48.719391,44.501839
148,Dnipropetrovsk,709930,48.450001,34.98333
149,Bokovskaya,575413,49.228989,41.830601
150,Millerovo,526558,48.922649,40.396729
151,Izyum,707292,49.208752,37.248482
152,Novouzensk,517739,50.459171,48.143059
153,Pallasovka,513042,50.049999,46.883331
154,Frolovo,562389,49.771332,43.66222
155,Boguchar,575457,49.935768,40.544998
156,Valuyki,477192,50.203499,38.106701
157,Kharkiv,706483,50.0,36.25
158,Krasnyy Kut,541647,50.950001,46.966671
159,Danilovka,567167,52.765556,46.15889
160,Rudnya,500664,55.549999,39.133331
161,Kalach,554410,50.4258,41.0261
162,Uryupinsk,478544,50.804699,42.013802
163,Anna,2521722,39.02029,-0.64621
164,Liski,534838,50.984051,39.51545
165,Belgorod,578072,50.610001,36.580002
166,Yershov,467120,51.351299,48.2766
167,Balashov,579460,51.550201,43.166698
168,Pugachev,504250,52.013332,48.802502
169,Karabulak,552951,43.303612,44.896389
170,Rtishchevo,500886,52.26041,43.787449
171,Zherdevka,463217,51.84861,41.46056
172,Livny,534701,52.425339,37.606892
173,Sevastopol,694423,44.599998,33.533333
174,Chornomorske,710687,45.503887,32.699722
175,Kherson,706448,46.655811,32.617802
176,Tiraspol,617239,46.840279,29.64333
177,Chisinau,618426,47.005562,28.8575
178,Odessa,4166787,28.193899,-82.591759
179,Balti,618605,47.761669,27.92889
180,Kryvyy Rih,703845,47.916668,33.349998
181,Lyubashivka,702898,47.837158,30.25976
182,Mohyliv-Podilskyy,700918,48.44598,27.798201
183,Chernivtsi,710719,48.291489,25.94034
184,Uzhhorod,690548,48.616669,22.299999
185,Svitlovodsk,692087,49.048939,33.241058
186,Uman,3514929,20.883329,-89.75
187,Vinnytsya,689558,49.23278,28.48097
188,Ivano-Frankivsk,707471,48.921501,24.709721
189,Poltava,696643,49.593731,34.54073
190,Myronivka,701031,49.660069,30.98225
191,Khmelnytskyy,706369,49.421612,26.996531
192,Ternopil,691650,49.555889,25.60556
193,Lviv,702550,49.838261,24.023239
194,Lubny,702723,50.016251,32.996941
195,Boryspil,711660,50.349998,30.950001
196,Zhytomyr,686967,50.26487,28.676689
197,Shepetivka,694216,50.185452,27.06365
198,Sumy,692194,50.9216,34.800289
199,Konotop,3095307,51.931568,15.90391
200,Volodymyr-Volynskyy,689378,50.852531,24.323641
201,Chernihiv,710735,51.505508,31.28488
202,Sarny,694792,51.337952,26.60191
203,Homyel,627907,52.434502,30.975401
204,Mazyr,625324,52.0495,29.2456
205,Pinsk,623549,52.122898,26.0951
206,Brest,2944213,53.450001,9.38333
207,Samara,3621990,9.8824,-85.526649
208,Sterlitamak,487495,53.624619,55.95015
209,Buguruslan,571159,53.655399,52.442001
210,Ufa,479561,54.775002,56.037498
211,Aksakovo,583688,56.066666,42.450001
212,Bugulma,571170,54.549999,52.799999
213,Chelno-Vershiny,569497,54.433331,51.099998
214,Askino,580577,56.09013,56.578308
215,Vyatskiye Polyany,470734,56.226021,51.065571
216,Yekaterinburg,1486209,56.857498,60.612499
217,Krasnoufimsk,542199,56.60585,57.766861
218,Sarapul,498687,56.47633,53.797821
219,Okhansk,516073,57.718552,55.387718
220,Nizhniy Tagil,520494,57.919441,59.965
221,Glazov,561347,58.139408,52.658421
222,Verkhoturye,1487219,58.862709,60.805359
223,Kudymkar,539817,59.017288,54.655998
224,Gari,1506676,59.43074,62.34967
225,Kirs,548333,59.338821,52.244671
226,Syzran,484972,53.158501,48.468102
227,Radishchevo,503254,52.849998,47.883331
228,Tambov,484646,52.73167,41.433891
229,Lipetsk,535121,52.603111,39.570759
230,Yefremov,468390,53.14806,38.099239
231,Orel,1521977,54.964722,68.330002
232,Inza,3680554,2.5513,-76.06546
233,Ryazhsk,500047,53.7038,40.110901
234,Uzlovaya,477494,53.981789,38.171181
235,Dimitrovgrad,566199,54.21386,49.618378
236,Surskoye,486043,54.482101,46.721401
237,Krasnoslobodsk,542212,54.425301,43.789631
238,Sasovo,461699,54.353691,41.919861
239,Ryazan,500096,54.61972,39.740002
240,Sukhinichi,486665,54.099892,35.342541
241,Kaluga,553915,54.529301,36.275421
242,Lukoyanov,533400,55.027721,44.478649
243,Vyksa,470444,55.317501,42.174438
244,Kashira,551964,54.84444,38.166939
245,Moscow,5202009,41.33675,-75.518517
246,Naro-Fominsk,523426,55.38752,36.73307
247,Kazan,551487,55.788738,49.122139
248,Sergach,496802,55.530788,45.46611
249,Vladimir,2013364,53.471401,102.654701
250,Gagarin,1514011,40.661942,68.172218
251,Kozmodemyansk,543018,56.336666,46.57111
252,Nizhniy Novgorod,520555,56.328674,44.002048
253,Tver,480060,56.861938,35.893059
254,Nolinsk,520041,57.55962,49.936291
255,Krasnyye Baki,541796,57.131001,45.15992
256,Yuryevets,466258,57.320068,43.104099
257,Ivanovo,555312,56.994167,40.985832
258,Kostroma,543878,57.770832,40.934444
259,Uglich,479532,57.5275,38.331669
260,Kotelnich,543737,58.308899,48.348
261,Buj,721986,48.099998,21.65
262,Rybinsk,500004,58.044601,38.84259
263,Maksatikha,531979,57.796951,35.882542
264,Kirov,548408,58.596649,49.660069
265,Vokhma,472887,58.930302,46.758591
266,Kologriv,546282,58.82748,44.317768
267,Cherepovets,569223,59.133331,37.900002
268,Oparino,515175,59.851791,48.278259
269,Totma,481960,59.974724,42.764168
270,Babayevo,580006,59.3936,35.937099
271,Trubchevsk,481350,52.5798,33.7644
272,Krasnaya Gora,542788,52.9995,31.602301
273,Babruysk,630468,53.150002,29.233334
274,Slutsk,621741,53.027401,27.5597
275,Baranavichy,630429,53.132702,26.013901
276,Bryansk,2026070,52.02306,106.84333
277,Roslavl,501283,53.952782,32.863892
278,Mahilyow,625665,53.913891,30.33639
279,Marina Horka,625409,53.508999,28.146999
280,Minsk,625144,53.900002,27.566668
281,Lida,626081,53.883331,25.299721
282,Smolensk,491687,54.781666,32.040001
283,Orsa,2686380,61.120338,14.6155
284,Vilnius,593116,54.689159,25.2798
285,Kaliningrad,554234,54.70649,20.51095
286,Dokshytsy,629002,54.892422,27.76894
287,Utena,593672,55.5,25.6
288,Belyy,471153,45.169998,37.259998
289,Birzai,600438,56.200001,24.75
290,Silale,594693,55.490559,22.181391
291,Velikiye Luki,476077,56.34,30.54517
292,Opochka,515155,56.71048,28.661739
293,Madona,457714,56.853291,26.21698
294,Riga,456172,56.950001,24.1
295,Liepaja,457954,56.51667,21.01667
296,Ostashkov,514259,57.146671,33.107529
297,Holm,2900337,54.833328,8.86667
298,Ventspils,454310,57.389439,21.56056
299,Bologoye,575349,57.879902,34.1068
300,Staraya Russa,489088,57.994389,31.360809
301,Pskov,504341,57.813599,28.3496
302,Valga,3106702,42.697922,-8.63959
303,Kuressaare,590939,58.248058,22.503889
304,Gdov,561679,58.740559,27.81222
305,Parnu,589580,58.38588,24.49711
306,Tikhvin,483019,59.645111,33.529369
307,Lyuban,532637,59.349998,31.216669
308,Kingisepp,548602,59.37331,28.61343
309,Tartu,588335,58.380619,26.72509
310,Khanty-Mansiysk,1503772,61.004169,69.001938
311,Ivdel,1505260,60.691109,60.420559
312,Cherdyn,569359,60.40295,56.47868
313,Gayny,561698,60.307072,54.32412
314,Syktyvkar,485239,61.676418,50.80994
315,Ust-Kulom,478050,61.686359,53.690201
316,Nizhnesortymskiy,7287775,62.439651,71.760292
317,Sosva,1491267,59.17662,61.855789
318,Ukhta,479411,63.567051,53.683479
319,Izhma,554830,65.008331,53.911282
320,Muzi,1940883,31.229441,113.546944
321,Pechora,511794,65.147163,57.224388
322,Vorkuta,1486910,67.5,64.0
323,Naryan-Mar,523392,67.671257,53.086971
324,Konosha,545353,60.973598,40.257
325,Nyuksenitsa,516539,60.412777,44.239723
326,Vozhega,471245,60.472462,40.22134
327,Belozersk,577711,60.032631,37.795719
328,Vyborg,470546,60.70763,28.752831
329,Krasnoborsk,542423,61.55978,45.93396
330,Velsk,475938,61.070061,42.098301
331,Nyandoma,516647,61.669029,40.19907
332,Pudozh,504269,61.809879,36.534538
333,Petrozavodsk,509820,61.784912,34.346909
334,Shenkursk,494884,62.1091,42.89595
335,Bereznik,577240,62.855141,42.707191
336,Medvezhyegorsk,527888,62.916668,34.466667
337,Koslan,544084,63.456421,48.898911
338,Sura,486163,53.887859,45.74192
339,Segezha,497927,63.74147,34.322182
340,Porosozero,506232,62.71912,32.727032
341,Pinega,509483,64.700142,43.39362
342,Kholmogory,549748,64.2229,41.655998
343,Rabocheostrovsk,798536,64.985474,34.766109
344,Kalevala,554318,65.199997,31.166668
345,Umba,479071,66.687057,34.342918
346,Murmansk,524305,68.979172,33.09251
347,Nikel,522260,69.412849,30.221979
348,Larnaca,146400,34.916672,33.629169
349,Paphos,146214,34.76667,32.416672
350,Rizokarpaso,146105,35.599998,34.375
351,Lefka,146392,35.110561,32.850559
352,Kas,2619061,57.197739,9.67173
353,Iskenderun,311111,36.587181,36.17347
354,Osmaniye,303195,37.074169,36.24778
355,Silifke,300808,36.377781,33.934441
356,Alanya,324190,36.543751,31.999821
357,Antalya,323776,36.77409,30.71777
358,Marmaris,304782,36.855,28.27417
359,Batman,321836,37.887379,41.13221
360,Gaziantep,314829,37.083328,37.333328
361,Denizli,317106,37.84016,29.06982
362,Nigde,303827,37.965832,34.679352
363,Eregli,315498,37.513329,34.046719
364,Konya,306569,38.166672,32.5
365,Aksehir,324490,38.357498,31.416389
366,Aydin,322830,37.845009,27.83963
367,Bitlis,321022,38.5,42.25
368,Bingol,321082,38.88472,40.493889
369,Elazig,315808,38.674309,39.223209
370,Malatya,304919,38.5,38.0
371,Kayseri,308463,38.73695,35.49683
372,Cihanbeyli,318506,38.660721,32.92437
373,Akhisar,324698,38.918522,27.840059
374,Ayvalik,322673,39.31905,26.6954
375,Van,298113,38.5,43.5
376,Kirsehir,307515,39.145828,34.163891
377,Kutahya,305268,39.424171,29.98333
378,Balikesir,322165,39.64917,27.88611
379,Yozgat,296560,39.583328,35.333328
380,Kirikkale,307654,39.84528,33.50639
381,Yalova,738025,40.655022,29.27693
382,Bursa,750268,40.166672,29.08333
383,Bandirma,751077,40.352219,27.976669
384,Canakkale,749780,40.145561,26.406389
385,Agri,309647,39.71944,43.051392
386,Kars,743942,40.416672,43.083328
387,Erzurum,315367,40.0,41.5
388,Erzincan,315372,39.75,39.5
389,Sivas,300617,39.791649,37.001949
390,Amasya,752014,40.666672,35.833328
391,Korgun,742657,40.734798,33.51844
392,Karabük,862468,41.25,32.5
393,Duzce,747764,40.83889,31.163891
394,Belek,321580,36.862782,31.055559
395,Tekirdag,738927,40.978008,27.50852
396,Kirklareli,743166,41.735081,27.22521
397,Trabzon,738647,40.916672,39.833328
398,Giresun,746878,40.5,38.5
399,Carsamba,749704,41.198891,36.721939
400,Sinop,739598,41.771061,34.870949
401,Ermoupolis,262603,37.442268,24.94248
402,Karpathos,260895,35.507011,27.213221
403,Kissamos,259718,35.493889,23.65694
404,Souda,253456,35.48444,24.07444
405,Milos,256952,36.75,24.433331
406,Methoni,257122,36.819729,21.704861
407,Zakynthos,251280,37.791389,20.895281
408,Athens,264371,37.97945,23.716221
409,Tripoli,2210247,32.875191,13.18746
410,Chios,259970,38.416672,26.0
411,Skyros,253614,38.904171,24.563061
412,Lamia,258620,38.900002,22.433331
413,Myrina,256930,39.879719,25.074169
414,Larisa,258576,39.637218,22.42028
415,Preveza,254698,38.950001,20.75
416,Ioannina,261779,39.6675,20.85083
417,Alexandroupoli,736928,40.8475,25.874439
418,Chrysoupolis,735747,40.985561,24.69389
419,Thessaloniki,734077,40.640282,22.94389
420,Kastoria,735927,40.51667,21.26667
421,Luqa,2562788,35.858891,14.48861
422,Cagliari,2525473,39.207378,9.13462
423,Sassari,3167096,40.727219,8.56028
424,Olbia,3172087,40.921371,9.48563
425,Oristano,2523964,39.903061,8.59194
426,Lampedusa,2524459,35.5,12.6
427,Gela,2524653,37.080341,14.23068
428,Catania,2525068,37.502129,15.08719
429,Sciacca,2523194,37.506931,13.08399
430,Reggio Calabria,2523630,38.11047,15.66129
431,Palermo,2523920,38.115822,13.35976
432,Catanzaro,2525059,38.890789,16.5987
433,Lecce,3174953,40.357029,18.17202
434,Scalea,2523207,39.813,15.79558
435,Policoro,3170384,40.21151,16.67259
436,Napoli,3172394,40.833328,14.25
437,Caserta,3179866,41.083221,14.33493
438,Ponza,3170189,40.893799,12.9625
439,Bari,1276948,26.65,77.599998
440,Vieste,3164387,41.88245,16.174959
441,Roma,2151187,-26.58333,148.783325
442,Pescara,3171168,42.460239,14.21021
443,Terni,3165771,42.567131,12.64987
444,Grosseto,3175786,42.77142,11.10794
445,Ancona,2177915,-36.98333,145.816666
446,Arezzo,3182884,43.461391,11.87691
447,Pisa,3170647,43.71553,10.39659
448,San Marino,3168070,43.933331,12.45
449,Bologna,3181928,44.493809,11.33875
450,Ferrara,3177090,44.826778,11.62071
451,Genoa,2165758,-37.48333,149.583328
452,Trieste,3165185,45.648609,13.78
453,Venezia,3164603,45.43861,12.32667
454,Verona,2145255,-36.466671,149.816666
455,Milano,3173435,45.464272,9.18951
456,Torino,3165524,45.070492,7.68682
457,Aosta,3182997,45.737358,7.3166
458,Tarvisio,3165912,46.51083,13.59417
459,Dobbiaco,3177571,46.7425,12.23139
460,Trento,1681333,8.04583,126.063606
461,Bolzano,3181913,46.492722,11.33358
462,Kurdzhali,729794,41.650002,25.366671
463,Sandanski,727447,41.566669,23.283331
464,Burgas,732770,42.506062,27.46781
465,Sliven,727079,42.685829,26.32917
466,Varna,1487764,53.381939,60.97472
467,Razgrad,727696,43.533329,26.51667
468,Vidin,725905,43.990002,22.872499
469,Mangalia,673921,43.799999,28.58333
470,Turnu Magurele,664437,43.75,24.866671
471,Calarasi,618454,47.25444,28.30806
472,Videle,662976,44.278061,25.524441
473,Grivita,676706,46.150002,27.65
474,Moldova Noua,672912,44.737499,21.666941
475,Ploiesti,670474,44.950001,26.01667
476,Curtea de Arges,679907,45.133331,24.683331
477,Targu Jiu,665010,45.049999,23.283331
478,Resita,668954,45.300831,21.88917
479,Ramnicu Sarat,668873,45.383331,27.049999
480,Brasov,683844,45.648609,25.606131
481,Sibiu,667268,45.799999,24.15
482,Deva,6609681,56.289169,42.941181
483,Arad,686254,46.183331,21.316669
484,Targu Ocna,665002,46.283329,26.616671
485,Odorheiu Secuiesc,671964,46.299999,25.299999
486,Baisoara,685773,46.583328,23.466669
487,Holod,676070,46.783329,22.133329
488,Negresti,672375,46.833328,27.433331
489,Bistrita,684657,47.13316,24.500111
490,Supuru de Jos,665758,47.466671,22.799999
491,Suceava,665850,47.633331,26.25
492,Sighetu Marmatiei,667227,47.933331,23.883329
493,Neum,3194514,42.923328,17.615561
494,Sarajevo,3191281,43.84864,18.35644
495,Tuzla,3188582,44.542782,18.669439
496,Banja Luka,3204541,44.775829,17.18556
497,Split,3190261,43.508911,16.43915
498,Dubrovnik,3201047,42.648071,18.092159
499,Zadar,3186952,44.11972,15.24222
500,Karlovac,3198259,45.487221,15.54778
501,Rijeka,3191648,45.34306,14.40917
502,Pula,2523675,39.009998,9.00167
503,Varazdin,3188383,46.30444,16.33778
504,Tirana,3183875,41.327499,19.81889
505,Sarande,363243,39.875561,20.00528
506,Skopje,785842,42.0,21.433331
507,Prilep,786734,42.5075,20.31778
508,Vranje,784227,42.551392,21.90028
509,Podgorica,3193044,42.441109,19.263611
510,Cuprija,791678,43.927502,21.370001
511,Pozega,3190589,45.340279,17.68528
512,Belgrade,2802359,50.471378,4.82935
513,Zrenjanin,783814,45.38361,20.381941
514,Sombor,3190342,45.77417,19.112221
515,Budapest,3054643,47.498009,19.039909
516,Pecs,3046526,46.083328,18.23333
517,Szeged,715429,46.252998,20.148239
518,Eger,721239,47.902649,20.373289
519,Debrecen,721472,47.533329,21.633329
520,Sopron,3045190,47.685009,16.59049
521,Szolnok,715126,47.183331,20.200001
522,Lesko,766452,49.4701,22.33042
523,Nowy Sacz,763534,49.621769,20.69705
524,Bielsko-Biala,3103402,49.822449,19.04686
525,Sandomierz,7532761,50.679501,21.747
526,Czestochowa,3100946,50.796459,19.12409
527,Klodzko,3096053,50.434879,16.661449
528,Wlodawa,755474,51.549999,23.549999
529,Kozienice,7533191,51.585999,21.536501
530,Lodz,3093133,51.75,19.466669
531,Wroclaw,3081368,51.099998,17.033331
532,Leszno,3093524,51.84034,16.57494
533,Warszawa,6695624,52.23547,21.04191
534,Poznan,3088171,52.406921,16.92993
535,Gorzow Wielkopolski,3098722,52.73679,15.22878
536,Bialystok,776069,53.133331,23.15
537,Ostroleka,762909,53.086208,21.575661
538,Mikolajki,764777,53.802879,21.57011
539,Torun,3083271,53.013748,18.598141
540,Chojnice,3101672,53.695541,17.557011
541,Resko,3087195,53.773071,15.40607
542,Gdansk,3099434,54.352051,18.64637
543,Ustka,3082756,54.580479,16.86194
544,Poprad,723846,49.06144,20.297979
545,Zvolen,3056459,48.574421,19.15324
546,Zilina,3056508,49.223148,18.73941
547,Bratislava,3060972,48.148159,17.106741
548,Trnava,3057124,48.377399,17.587231
549,Ostrava,3068799,49.834648,18.28204
550,Brno,3078610,49.195221,16.60796
551,Liberec,3071961,50.767109,15.05619
552,Prague,3067696,50.088039,14.42076
553,Ceske Budejovice,3077916,48.974468,14.47434
554,Sankt Polten,2766429,48.200001,15.63333
555,Vienna,2761369,48.208488,16.37208
556,Graz,2778067,47.066669,15.45
557,Schwerin,2834282,53.629372,11.41316
558,Andorra,3130067,40.976551,-0.44721
559,Lisbon,2267057,38.716671,-9.13333
560,Braganca,2742027,41.80582,-6.75719
561,Portalegre,2264508,39.293789,-7.43122
562,Castelo Branco,2269514,39.822189,-7.49087
563,Manteigas,2737936,40.402802,-7.53977
564,Vila Real,2732438,41.300621,-7.74413
565,Beja,2270985,38.01506,-7.86323
566,Faro,2268339,37.019371,-7.93223
567,Porto,2735943,41.149609,-8.61099
568,Monte Real,2265844,39.8521,-8.86349
569,Almeria,1731314,11.62028,124.381668
570,Torrox,2510245,36.757931,-3.95233
571,Cádiz,6356927,36.500881,-6.26843
572,Ronda,1691525,9.999,123.4095
573,Murcia,1699059,15.40425,120.609032
574,Sevilla,1686940,9.70383,124.048286
575,Jaen,1710389,15.3275,120.919197
576,Badajoz,2521420,38.877892,-6.97061
577,Caceres,2520611,39.47649,-6.37224
578,Cordoba,2519240,37.883331,-4.76667
579,Ibiza,2516479,38.908829,1.43296
580,Palma de Mallorca,6533961,39.569511,2.64745
581,Albacete,2522258,38.98333,-1.85
582,Valencia,1680106,11.10889,124.572502
583,Ciudad Real,2519402,38.98333,-3.93333
584,Toledo,1681602,10.37917,123.641937
585,Madrid,1704129,9.26211,125.964371
586,Cuenca,1716618,13.902,121.052101
587,Salamanca,1690984,10.74655,123.529999
588,Teruel,3108126,40.3456,-1.10646
589,Zamora,3104342,41.5,-5.75
590,Castello de la Plana,2519752,39.98333,-0.03333
591,Valladolid,1680097,10.4616,122.824501
592,Tarragona,1682792,7.0491,126.447083
593,Zaragoza,1679386,16.3871,119.944298
594,Aranda de Duero,3129877,41.67041,-3.6892
595,Almaden,2521938,38.77541,-4.83156
596,Oropesa,2513069,39.917259,-5.17371
597,Leon,1706843,10.78085,122.389397
598,Vigo,1679964,13.82666,120.179222
599,A Coruna,3119841,43.371349,-8.396
600,Lugo,1705312,10.81639,123.988892
601,Gijon,3121424,43.535728,-5.66152
602,Santander,1687965,9.4156,123.329102
603,Burgos,1722419,18.5121,120.644501
604,Bilbao,3128026,43.262711,-2.92528
605,Logrono,3118150,42.466671,-2.45
606,Pamplona,1695830,18.466391,121.34111
607,Lerida,2160331,-34.883331,149.333328
608,Girona,3121456,41.983109,2.82493
609,Valladolid,1680097,10.4616,122.824501
610,Barcelona,1726701,13.7715,123.0485
611,Manresa,3117533,41.724979,1.82656
612,Calamocha,3127059,40.919331,-1.2975
613,Carrion de los Condes,3126161,42.341301,-4.60071
614,Soria,3108681,41.764011,-2.46883
615,Peniscola,3113860,40.357399,0.40692
616,Segovia,3109256,40.950001,-4.11667
617,Xinzo de Limia,3121404,42.063499,-7.72459
618,Guadalajara,3121070,40.633331,-3.16667
619,Fisterra,3122426,42.904919,-9.26289
620,Siguenza,3108961,41.06892,-2.64308
621,Riopar,2511818,38.5,-2.45
622,Huelva,2516548,37.258331,-6.95083
623,Ponferrada,3113236,42.546638,-6.59619
624,Perpignan,2987914,42.697639,2.89541
625,Foix,3018174,42.966671,1.6
626,Narbonne,2990919,43.183331,3.0
627,Montpellier,2992166,43.61092,3.87723
628,Toulouse,2972315,43.604259,1.44367
629,Pau,1694286,15.03333,120.716667
630,Biarritz,3032797,43.480122,-1.55558
631,Mont-de-Marsan,2992771,43.890221,-0.49713
632,Bordeaux,3031582,44.840439,-0.5805
633,Auch,3036281,43.650002,0.58333
634,Agen,3038634,44.200001,0.63333
635,Bergerac,3033391,44.849998,0.48333
636,Cahors,3029213,44.4491,1.43663
637,Aurillac,3036016,44.916672,2.45
638,Rodez,2983154,44.352581,2.57338
639,Albi,2525757,39.02499,16.596399
640,Mende,2994617,44.51667,3.5
641,Millau,2993875,44.099998,3.08333
642,Le Puy-en-Velay,3002465,45.043659,3.88523
643,Clermont-Ferrand,3024635,45.779659,3.08628
644,Limoges,2998286,45.831532,1.2578
645,Avignon,3035681,43.948341,4.80892
646,Marseille,2995469,43.296951,5.38107
647,Nice,2990440,43.703129,7.26608
648,Gap,3016702,44.566669,6.08333
649,Valence,2971053,44.933331,4.9
650,Grenoble,3014728,45.166672,5.71667
651,Lyon,2996944,45.748459,4.84671
652,Angouleme,3037598,45.650002,0.15
653,Royan,2982343,45.62846,-1.0281
654,La Rochelle,3006787,46.166672,-1.15
655,Poitiers,2986495,46.583328,0.33333
656,La Roche-sur-Yon,3006767,46.666672,-1.43333
657,Saint-Nazaire,2977921,47.283329,-2.2
658,Nantes,2990969,47.217251,-1.55336
659,Angers,3037656,47.466671,-0.55
660,Tours,2972191,47.383331,0.68333
661,Chateauroux,3026204,46.816669,1.7
662,Brive-la-Gaillarde,3029974,45.150002,1.53333
663,Montlucon,2992292,46.333328,2.6
664,Bourges,3031005,47.083328,2.4
665,Bourg-en-Bresse,3031009,46.205742,5.2258
666,Dijon,3021372,47.316669,5.01667
667,Besancon,3033123,47.248779,6.01815
668,Mulhouse,2991214,47.75,7.33333
669,Strasbourg,2973783,48.58342,7.74296
670,Metz,2994160,49.11911,6.17269
671,Basel,2661604,47.558399,7.57327
672,Zurich,2657896,47.366669,8.55
673,Vaduz,3042030,47.14151,9.52154
674,La Chaux-de-Fonds,2660076,47.09993,6.82586
675,Brussels,2800866,50.850449,4.34878
676,Amsterdam,2759794,52.374031,4.88969
677,Rotterdam,2747891,51.922501,4.47917
678,Groningen,2755251,53.21917,6.56667
679,Copenhagen,2618425,55.675941,12.56553
680,Odense,2615876,55.395939,10.38831
681,Arhus,2624652,56.156738,10.21076
682,Aalborg,2624886,57.048,9.9187
683,Esbjerg,2622447,55.466671,8.45
684,Horsens,2619771,55.860661,9.85034
685,Grenaa,2621230,56.415779,10.87825
686,Holstebro,2620046,56.360088,8.61607
687,Frederikshavn,2621927,57.440731,10.53661
688,Thisted,2611755,56.955231,8.69491
689,Husavik,2629833,66.044891,-17.33885
690,Siglufjordur,2627130,66.151337,-18.905121
691,Vestmannaeyjar,3412093,63.44273,-20.27339
692,Reykjavik,3413829,64.135483,-21.895411
693,Isafjoerdur,3415667,66.075493,-23.124001
694,Vopnafjörður,2625189,65.755501,-14.8252
695,Isafjoerdur,3415667,66.075493,-23.124001
696,Bjarnanes,2632811,64.315399,-15.24182
697,County Limerick,2962941,52.5,-8.75
698,Sligo,2961422,54.25,-8.66667
699,Belmullet,2966208,54.224998,-9.99083
700,County Galway,2964179,53.333328,-9.0
701,Dublin,2072525,-34.450001,138.350006
702,Dundalk,2964540,54.0,-6.41667
703,Kilkenny,2963397,52.583328,-7.25
704,Cork,2965140,51.897968,-8.47061
705,Portmagee,2962021,51.886108,-10.36167
706,Belfast,1020340,-25.689911,30.03504
707,Douglas,1008612,-29.055309,23.7743
708,Penzance,2640377,50.11861,-5.53715
709,Exeter,2649808,50.723598,-3.52751
710,Plymouth,2640194,50.371529,-4.14305
711,Bristol,2654675,51.455231,-2.59665
712,London,2643743,51.50853,-0.12574
713,Bournemouth,2655095,50.720482,-1.8795
714,Ipswich,2162644,-27.616671,152.766663
715,Peterborough,2063518,-32.966671,138.833328
716,Norwich,2641181,52.627831,1.29834
717,Birmingham,2655603,52.481419,-1.89983
718,Leicester,2644668,52.638599,-1.13169
719,Cardiff,2172349,-32.950001,151.666672
720,Swansea,2636432,51.620789,-3.94323
721,Milford Haven,2642534,51.71278,-5.0341
722,Holyhead,2646686,53.30621,-4.63211
723,Liverpool,2159851,-33.900002,150.933334
724,Manchester,2643123,53.480949,-2.23743
725,Stoke-on-Trent,2636841,53.00415,-2.18538
726,Sheffield,2149687,-41.383331,146.333328
727,Hull,2645425,53.744598,-0.33525
728,Leeds,2644688,53.796478,-1.54785
729,Carlisle,2653775,54.8951,-2.9382
730,Newcastle,2155472,-32.927151,151.776474
731,Middlesbrough,2642607,54.576229,-1.23483
732,Glasgow,2648579,55.86515,-4.25763
733,Edinburgh,2650225,55.952061,-3.19648
734,Aberdeen,2657832,57.143688,-2.09814
735,Inverness,2646088,57.47908,-4.22398
736,Wick,2633982,58.433331,-3.08333
737,Stornoway,2636790,58.209251,-6.38649
738,Torshavn,2611396,62.009731,-6.77164
739,Brae,2654970,60.396351,-1.35296
740,Daliburgh,2651589,57.166672,-7.4
741,Helsinki,658224,60.60778,21.438101
742,Mariehamn,3041732,60.09726,19.934811
743,Hanko,659101,59.833328,22.950001
744,Kökar,651989,59.916672,21.0
745,Turku,633679,60.451481,22.26869
746,Lahti,649360,60.98267,25.66151
747,Kuopio,650224,62.89238,27.677031
748,Pori,640999,61.48333,21.783331
749,Savonlinna,637292,61.8699,28.87999
750,Jämsä,656084,61.833328,25.25
751,Ilomantsi,656709,62.671619,30.93276
752,Kaskinen,653758,62.384441,21.22331
753,Multia,645710,62.416672,24.783331
754,Jakobstad,656130,63.674858,22.70256
755,Vaasa,632978,63.096001,21.61577
756,Kalajoki,654837,64.25,23.950001
757,Kajaani,654899,64.22728,27.72846
758,Utsjoki,633268,69.908638,27.028431
759,Suomussalmi,635696,64.886848,28.90778
760,Kittila,652590,67.666672,24.9
761,Ranua,639888,65.916672,26.533331
762,Oulu,643492,65.01236,25.468161
763,Kuusamo,649924,65.966667,29.183331
764,Inari,656657,68.90596,27.028811
765,Salla,2766856,47.099998,14.96667
766,Pello,642367,66.783333,23.91667
767,Kautokeino,779327,69.011513,23.04151
768,Kalmar,2702261,56.661572,16.361629
769,Kristianstad,2699310,56.031288,14.15242
770,Ljungby,2694560,56.833241,13.94082
771,Visby,2610150,55.010151,8.7804
772,Norrkoping,2688368,58.594189,16.1826
773,Hultsfred,2704398,57.488152,15.84357
774,Sala,2680662,59.91993,16.60655
775,Stockholm,2673730,59.332581,18.064899
776,Karlskoga,2701715,59.326672,14.52386
777,Mora,2225991,11.04611,14.14011
778,Bengtsfors,2723079,59.029121,12.23207
779,Arjaeng,2725379,59.39217,12.13336
780,Hudiksvall,2704613,61.72897,17.10358
781,Ostersund,2685750,63.179199,14.63566
782,Skelleftea,602913,64.750671,20.952789
783,Umea,602150,63.828419,20.25972
784,Lycksele,2693347,64.595367,18.67351
785,Hammarstrand,2708152,63.110409,16.353769
786,Mala,2693152,65.185013,18.74243
787,Arvidsjaur,2725136,65.590332,19.166821
788,Kiruna,605155,67.855721,20.22513
789,Oslo,3143244,59.912731,10.74609
790,Porsgrunn,3142657,59.140541,9.6561
791,Kristiansand,3149318,58.146709,7.9956
792,Stavanger,3137115,58.970051,5.73332
793,Haugesund,3153623,59.41378,5.268
794,Innbygda,3133819,61.314838,12.26374
795,Flisa,7626328,60.609219,12.01543
796,Ringebu,3141850,61.51667,10.16667
797,Nesbyen,3144733,60.568089,9.10274
798,Bismo,7626332,61.883869,8.26914
799,Ulvik,3133311,60.567188,6.91871
800,Forde,3156804,61.452171,5.85717
801,Namsos,3145023,64.46624,11.49572
802,Trondheim,3133880,63.430489,10.39506
803,Folldal,3156868,62.132462,9.9968
804,Halten,2660415,46.900002,8.16667
805,Sjoholt,3139557,62.483711,6.81062
806,Bergen,2950622,52.808369,9.96374
807,Sortland,3137405,68.694939,15.41618
808,Bodo,3160881,67.279999,14.40501
809,Vik,3131675,61.088631,6.58512
810,Arendal,3162955,58.46151,8.77253
811,Båtsfjord,780714,70.635063,29.721491
812,Honningsvag,779554,70.982094,25.970369
813,Alta,2726394,59.26667,18.183331
814,Hasvik,779641,70.591637,22.302719
815,Tromso,3133895,69.648903,18.95508
816,Skaland,3139431,69.444557,17.298321
817,Olonkinbyen,7535941,70.922096,-8.7187
818,Nancy,2990999,48.683331,6.2
819,Chaumont,3025892,48.116669,5.13333
820,Troyes,2971549,48.299999,4.08333
821,Auxerre,3035843,47.799999,3.56667
822,Reims,2984114,49.25,4.03333
823,Fira,252920,36.42107,25.43087
824,Sharm ash Shaykh,349340,27.85183,34.304989
825,Brunswick,2173741,-37.76667,144.966675
826,Innsbruck,2775220,47.262661,11.39454
827,Linz,2772400,48.306389,14.28611
828,Salzburg,2766823,47.416672,13.25
829,Luxemburg,5261340,44.538609,-87.703979
830,Sofia,727011,42.69751,23.32415
831,Stara Zagora,726848,42.432781,25.641939
832,Geneva,4063926,31.032961,-85.863823
833,Sion,2658576,46.22908,7.35942
834,Nicosia,146268,35.166672,33.366669
835,Plzen,3068160,49.747471,13.37759
836,Tallinn,588409,59.436958,24.753531
837,Rakvere,589165,59.34639,26.355829
838,Jyvaeskylae,655194,62.23333,25.73333
839,Rovaniemi,638936,66.5,25.716669
840,Saint-Dizier,2980816,48.633331,4.95
841,Orleans,2989317,47.902889,1.90389
842,Chartres,3026467,48.44685,1.48925
843,Melun,2994651,48.533329,2.66667
844,Paris,2968815,48.853401,2.3486
845,Evreux,3019265,49.024139,1.15082
846,Alencon,3038230,48.433331,0.08333
847,Caen,3029241,49.185848,-0.35912
848,Le Mans,3003603,48.0,0.2
849,Rennes,2983990,48.11198,-1.67429
850,Lorient,2997577,47.75,-3.36667
851,Brest,2944213,53.450001,9.38333
852,Saint-Brieuc,2981280,48.51667,-2.78333
853,Cherbourg-Octeville,3025466,49.639839,-1.61636
854,Rouen,2982652,49.44313,1.09932
855,Beauvais,3034006,49.433331,2.08333
856,Amiens,3037854,49.900002,2.3
857,Le Havre,3003796,49.493801,0.10767
858,Boulogne-sur-Mer,3031133,50.716671,1.61667
859,Calais,3029162,50.958099,1.85205
860,Dunkerque,3020686,51.049999,2.36667
861,Lille,2792360,51.24197,4.82312
862,Arras,3036784,50.293011,2.78186
863,Compiegne,3024066,49.417938,2.82606
864,Laon,3007477,49.566669,3.61667
865,Maubeuge,2995150,50.278751,3.97267
866,Charleville-Mezieres,3026613,49.76667,4.71667
867,Verdun,2059488,-35.0,138.783325
868,Patra,255683,38.244438,21.73444
869,Zagreb,3186886,45.814442,15.97798
870,Osijek,3193935,45.551109,18.69389
871,Slavonski Brod,3190586,45.160278,18.01556
872,Carndonagh,2965761,55.25,-7.26667
873,Gaza,281133,31.5,34.466671
874,Carbonia,2525362,39.167221,8.52222
875,Capri,3180630,40.550732,14.24263
876,Firenze,3176959,43.76667,11.25
877,Parma,3171457,44.802662,10.32898
878,Kaunas,598316,54.900002,23.9
879,Klaipeda,598098,55.71722,21.1175
880,Tangier,2530335,35.780579,-5.81365
881,Bastia,3034640,42.702782,9.45
882,Ajaccio,3038334,41.927231,8.73462
883,Eindhoven,2756253,51.44083,5.47778
884,Enschede,2756071,52.21833,6.89583
885,Bucharest,683506,44.432251,26.10626
886,Cluj-Napoca,681290,46.76667,23.6
887,Timisoara,665087,45.749439,21.227221
888,Iasi,675810,47.166672,27.6
889,Novi Sad,3194360,45.251671,19.836941
890,Pristina,786714,42.672722,21.16688
891,Goeteborg,2711537,57.707161,11.96679
892,Jonkoping,2702979,57.781448,14.15618
893,Linkoping,2694762,58.410858,15.62157
894,Orebro,2686657,59.27412,15.2066
895,Bratislava,3060972,48.148159,17.106741
896,Kosice,724443,48.713951,21.25808
897,Nitra,3058531,48.307629,18.08453
898,Homs,169577,34.726822,36.723389
899,Aleppo,170063,36.201241,37.161171
900,Tunis,2464470,36.81897,10.16579
901,Istanbul,745044,41.01384,28.949659
902,Kiev,703448,50.433334,30.516666
