,City,ID,Lat,Lon,Temp
0,Friedrichshafen,2924585,47.650002,9.48333,1.72
1,Freiburg,2925177,47.995899,7.85222,3.99
2,Stuttgart,2825297,48.782318,9.17702,2.0
3,Wuerzburg,2805615,49.787781,9.93611,0.63
4,Pforzheim,2853969,48.883331,8.7,2.5
5,Crailsheim,2939797,49.134441,10.07193,0.65
6,Ulm,2820256,48.398411,9.99155,0.4
7,Memmingen,2871992,47.983719,10.18527,-0.23
8,Augsburg,2954172,48.366669,10.88333,0.67
9,Rotthalmunster,2843682,48.35825,13.20162,-1.0
10,Muenchen,2867714,48.137428,11.57549,0.79
11,Regensburg,2849483,49.014999,12.09556,1.0
12,Bayreuth,2951825,49.948059,11.57833,1.0
13,Nuremberg,2861650,49.447781,11.06833,1.0
14,Zwickau,2803560,50.73333,12.5,-0.5
15,Cottbus,2939811,51.76667,14.33333,0.84
16,Chemnitz,2940132,50.833328,12.91667,0.5
17,Leipzig,2879139,51.339619,12.37129,1.53
18,Erfurt,2929670,50.98333,11.03333,0.0
19,Magdeburg,2874545,52.166672,11.66667,-1.44
20,Frankfurt am Main,2925533,50.116669,8.68333,4.0
21,Marburg an der Lahn,2873759,50.816669,8.76667,0.0
22,Kaiserslautern,2894003,49.450001,7.75,1.37
23,Koblenz,2886946,50.349998,7.6,1.01
24,Kassel,2892518,51.316669,9.5,0.0
25,Bonn,2946447,50.73333,7.1,0.72
26,Dusseldorf,2934246,51.221722,6.77616,1.0
27,Meppen,2871845,52.690639,7.29097,0.66
28,Berlin,2950159,52.524368,13.41053,0.98
29,Dortmund,2935517,51.51667,7.45,0.45
30,Muenster,2867543,51.96236,7.62571,0.53
31,Bielefeld,2949186,52.033329,8.53333,-0.36
32,Hannover,2910831,52.370522,9.73322,-0.8
33,Bremen,2944387,53.083328,8.83333,0.0
34,Hamburg,2911298,53.549999,10.0,-1.0
35,Kiel,2891122,54.321331,10.13489,0.0
36,Rostock,2844588,54.088699,12.14049,-1.0
37,Aachen,3247449,50.776642,6.08342,0.99
38,Fulda,2923822,50.55162,9.67518,0.0
39,Tor,359678,28.23638,33.625401,11.09
40,Suez,359796,29.973709,32.526272,4.66
41,Cairo,360630,30.06263,31.24967,15.0
42,Khan Yunis,281124,31.340179,34.306271,7.41
43,Port Said,358619,31.25654,32.284119,16.0
44,Alexandria,361058,31.215639,29.955271,12.88
45,Marsa Matruh,352733,31.352539,27.245279,13.0
46,Remada,2467783,32.31662,10.39551,20.0
47,Tataouine,2464701,32.929668,10.45177,20.0
48,Mellita,2469329,33.863178,10.80154,15.0
49,Kebili,2468018,33.704391,8.96903,16.06
50,Sfax,2467454,34.740559,10.76028,10.0
51,Sidi Bouzid,2465840,35.038231,9.48494,9.41
52,Mahdia,2473572,35.504719,11.06222,15.0
53,Thala,2464795,35.572441,8.67031,14.0
54,El Kef,2473634,36.17424,8.70486,16.0
55,Enfida,2473358,36.135281,10.38083,15.77
56,Beja,2472774,36.725639,9.18169,16.49
57,Adrar,2508813,27.87429,-0.29388,19.0
58,Timimoun,2476403,29.26388,0.23098,18.0
59,El Golea,2498305,30.566669,2.88333,18.0
60,Hassi Messaoud,2494029,31.68041,6.07286,16.98
61,Bechar,2505530,31.616671,-2.21667,16.0
62,Ghardaïa,2496049,32.49094,3.67347,17.0
63,Ain Sefra,2507943,32.75,-0.58333,11.26
64,El Oued,2497411,33.356079,6.86319,19.0
65,El Bayadh,2498543,33.683182,1.01927,6.84
66,Mecheria,2489865,33.544529,-0.28117,12.0
67,Laghouat,2491191,33.799999,2.86514,11.46
68,Djelfa,2500017,34.672791,3.263,8.59
69,Biskra,2503826,34.85038,5.72805,18.0
70,Maghnia,2490584,34.849689,-1.72753,10.45
71,Sidi Bel Abbes,2481007,35.189941,-0.63085,12.0
72,Bou Saâda,2502385,35.208549,4.17402,10.26
73,Ksar Chellala,2491335,35.212219,2.31889,9.81
74,Relizane,2483668,35.737339,0.55599,11.69
75,Oran,2485926,35.691109,-0.64167,12.0
76,Khenchela,2491889,35.435829,7.14333,9.26
77,Setif,2481700,36.19112,5.41373,13.63
78,Algiers,2507480,36.752499,3.04197,15.0
79,Constantine,2501152,36.365002,6.61472,10.0
80,Bouira,2502958,36.374889,3.902,14.06
81,Ténès,2477148,36.510761,1.30809,12.0
82,Bejaia,2505329,36.755871,5.08433,12.29
83,Annaba,2506999,36.900002,7.76667,15.0
84,Ceuta,2519582,35.890282,-5.3075,13.29
85,Errachidia,2549340,31.75,-4.5,18.0
86,Midelt,2542227,32.6852,-4.74512,7.31
87,Beni-Mellal,2555742,32.5,-6.33333,11.34
88,Nouaceur,6547299,33.458389,-7.64726,12.39
89,Casablanca,2553604,33.592781,-7.61916,12.36
90,Meknes,2542715,33.89352,-5.54727,9.0
91,Rabat,2538474,33.991112,-6.84006,12.74
92,Taza,2529313,34.25,-3.75,9.94
93,Al Hoceima,2558545,35.243328,-3.93092,14.0
94,Chefchaouene,2553455,35.168781,-5.2636,13.0
95,Tabuk,101628,28.383329,36.583328,12.0
96,Al Qurayyat,108648,31.33176,37.342819,8.0
97,Aqaba,250774,29.52667,35.007778,14.0
98,At Tafilah,250198,30.837521,35.60442,3.46
99,Amman,250441,31.955219,35.94503,7.43
100,Irbid,248944,32.5,35.833328,9.0
101,Tel Aviv,293397,32.080879,34.780571,12.61
102,Haifa,294801,32.815559,34.98917,17.36
103,Tripoli,266826,34.436668,35.84972,-1.26
104,Beirut,276781,33.888939,35.494419,14.0
105,Damascus,170654,33.510201,36.291279,7.0
106,Hamah,170017,35.13179,36.757832,8.86
107,Latakia,173576,35.514839,35.77684,14.0
108,Al Hasakah,173811,36.502369,40.747719,8.0
109,Yerevan,616051,40.183331,44.5,3.0
110,Gyumri,616635,40.794201,43.84528,-2.15
111,Tbilisi,611717,41.694111,44.833679,5.0
112,Batumi,615532,41.64159,41.635929,8.0
113,Zestaponi,610864,42.110001,43.052502,7.0
114,Zugdidi,610824,42.508801,41.87088,7.0
115,Gudermes,558118,43.356941,46.105282,3.0
116,Vladikavkaz,473249,43.036671,44.667782,-2.91
117,Nalchik,523523,43.498058,43.618889,0.0
118,Teberda,483873,43.445648,41.744801,-5.04
119,Adler,584243,43.43,39.919998,8.0
120,Kizlyar,547840,43.846939,46.715,4.61
121,Budennovsk,571306,44.78389,44.165829,0.76
122,Nevinnomyssk,522377,44.626667,41.945278,-1.0
123,Maykop,528293,44.60778,40.105831,2.66
124,Anapa,582182,44.890839,37.323898,9.0
125,Dzhangala,609965,49.216671,50.333328,-9.09
126,Oral,608668,51.233334,51.366669,-21.0
127,Sorochinsk,490554,52.4338,53.158298,-19.06
128,Svetlograd,485698,45.335281,42.854721,-1.0
129,Astrakhan,580497,46.349682,48.04076,-2.0
130,Iki-Burul,557413,45.820831,44.647221,-3.0
131,Yashkul,468747,46.171101,45.343498,-0.64
132,Tikhoretsk,483029,45.854721,40.125278,3.36
133,Primorsko-Akhtarsk,505259,46.049702,38.174702,4.31
134,Yusta,466135,47.121101,46.301601,-3.91
135,Remontnoye,502185,46.561401,43.650101,-3.0
136,Zimovniki,462522,47.148335,42.463333,-3.14
137,Gigant,561499,56.44389,41.296112,-6.91
138,Yeysk,466885,46.698891,38.279167,2.21
139,Taganrog,484907,47.236172,38.896881,0.36
140,Malyye Derbety,530196,47.95472,44.680828,-6.01
141,Kotelnikovo,543728,47.631668,43.146111,-3.89
142,Konstantinovsk,545277,47.582779,41.09222,-0.34
143,Zaporizhzhya,687700,47.816669,35.183331,0.44
144,Verkhniy Baskunchak,475196,48.225639,46.721699,-5.76
145,Volgograd,472757,48.719391,44.501839,-9.0
146,Dnipropetrovsk,709930,48.450001,34.98333,0.58
147,Bokovskaya,575413,49.228989,41.830601,-6.24
148,Millerovo,526558,48.922649,40.396729,-4.44
149,Izyum,707292,49.208752,37.248482,-1.56
150,Novouzensk,517739,50.459171,48.143059,-10.59
151,Pallasovka,513042,50.049999,46.883331,-9.59
152,Frolovo,562389,49.771332,43.66222,-7.91
153,Boguchar,575457,49.935768,40.544998,-5.91
154,Valuyki,477192,50.203499,38.106701,-4.59
155,Kharkiv,706483,50.0,36.25,-3.0
156,Krasnyy Kut,541647,50.950001,46.966671,-10.04
157,Danilovka,567167,52.765556,46.15889,-10.66
158,Rudnya,500664,55.549999,39.133331,-6.0
159,Kalach,554410,50.4258,41.0261,-6.99
160,Uryupinsk,478544,50.804699,42.013802,-8.39
161,Anna,581671,51.4842,40.429901,-8.19
162,Liski,534838,50.984051,39.51545,-6.69
163,Belgorod,578072,50.610001,36.580002,-4.0
164,Yershov,467120,51.351299,48.2766,-10.66
165,Balashov,579460,51.550201,43.166698,-9.66
166,Pugachev,504250,52.013332,48.802502,-11.39
167,Karabulak,552951,43.303612,44.896389,3.0
168,Rtishchevo,500886,52.26041,43.787449,-10.29
169,Zherdevka,463217,51.84861,41.46056,-8.84
170,Livny,534701,52.425339,37.606892,-4.81
171,Sevastopol,694423,44.599998,33.533333,7.49
172,Chornomorske,710687,45.503887,32.699722,5.09
173,Kherson,706448,46.655811,32.617802,3.0
174,Tiraspol,617239,46.840279,29.64333,2.0
175,Chisinau,618426,47.005562,28.8575,2.0
176,Odessa,698740,46.477474,30.732622,3.0
177,Balti,618605,47.761669,27.92889,0.0
178,Kryvyy Rih,703845,47.916668,33.349998,0.0
179,Lyubashivka,702898,47.837158,30.25976,1.46
180,Mohyliv-Podilskyy,700918,48.44598,27.798201,-0.24
181,Chernivtsi,710719,48.291489,25.94034,-1.0
182,Uzhhorod,690548,48.616669,22.299999,2.24
183,Svitlovodsk,692087,49.048939,33.241058,-3.09
184,Uman,690688,48.748379,30.22184,1.31
185,Vinnytsya,689558,49.23278,28.48097,1.0
186,Ivano-Frankivsk,707471,48.921501,24.709721,-1.0
187,Poltava,696643,49.593731,34.54073,-1.24
188,Myronivka,701031,49.660069,30.98225,0.84
189,Khmelnytskyy,706369,49.421612,26.996531,-1.56
190,Ternopil,691650,49.555889,25.60556,-1.99
191,Lviv,702550,49.838261,24.023239,1.0
192,Lubny,702723,50.016251,32.996941,-0.56
193,Boryspil,711660,50.349998,30.950001,0.69
194,Zhytomyr,686967,50.26487,28.676689,0.49
195,Shepetivka,694216,50.185452,27.06365,-3.69
196,Sumy,692194,50.9216,34.800289,-0.74
197,Konotop,705135,51.240318,33.202629,0.09
198,Volodymyr-Volynskyy,689378,50.852531,24.323641,1.41
199,Chernihiv,710735,51.505508,31.28488,0.86
200,Sarny,694792,51.337952,26.60191,-2.16
201,Homyel,627907,52.434502,30.975401,1.0
202,Mazyr,625324,52.0495,29.2456,0.36
203,Pinsk,623549,52.122898,26.0951,-3.16
204,Brest,629634,52.099998,23.700001,0.69
205,Samara,499099,53.200001,50.150002,-15.0
206,Sterlitamak,487495,53.624619,55.95015,-16.24
207,Buguruslan,571159,53.655399,52.442001,-16.01
208,Ufa,479561,54.775002,56.037498,-15.0
209,Aksakovo,583688,56.066666,42.450001,-7.74
210,Bugulma,571170,54.549999,52.799999,-12.24
211,Chelno-Vershiny,569497,54.433331,51.099998,-10.34
212,Askino,580577,56.09013,56.578308,-11.56
213,Vyatskiye Polyany,470734,56.226021,51.065571,-8.69
214,Yekaterinburg,1486209,56.857498,60.612499,-8.0
215,Krasnoufimsk,542199,56.60585,57.766861,-10.49
216,Sarapul,498687,56.47633,53.797821,-8.26
217,Okhansk,516073,57.718552,55.387718,-6.0
218,Nizhniy Tagil,520494,57.919441,59.965,-17.34
219,Glazov,561347,58.139408,52.658421,-8.44
220,Verkhoturye,1487219,58.862709,60.805359,-18.56
221,Kudymkar,539817,59.017288,54.655998,-7.41
222,Gari,1506676,59.43074,62.34967,-20.16
223,Kirs,548333,59.338821,52.244671,-6.49
224,Syzran,484972,53.158501,48.468102,-10.51
225,Radishchevo,503254,52.849998,47.883331,-11.19
226,Tambov,484646,52.73167,41.433891,-8.81
227,Lipetsk,535121,52.603111,39.570759,-6.99
228,Yefremov,468390,53.14806,38.099239,-6.06
229,Orel,515012,52.965832,36.080276,-2.74
230,Inza,556283,53.853333,46.358612,-9.51
231,Ryazhsk,500047,53.7038,40.110901,-7.14
232,Uzlovaya,477494,53.981789,38.171181,-5.76
233,Dimitrovgrad,566199,54.21386,49.618378,-14.0
234,Surskoye,486043,54.482101,46.721401,-8.74
235,Krasnoslobodsk,542212,54.425301,43.789631,-9.56
236,Sasovo,461699,54.353691,41.919861,-8.54
237,Ryazan,500096,54.61972,39.740002,-6.59
238,Sukhinichi,486665,54.099892,35.342541,-1.34
239,Kaluga,553915,54.529301,36.275421,-3.0
240,Lukoyanov,533400,55.027721,44.478649,-9.34
241,Vyksa,470444,55.317501,42.174438,-8.31
242,Kashira,551964,54.84444,38.166939,-6.0
243,Moscow,524901,55.75222,37.615555,-4.81
244,Naro-Fominsk,523426,55.38752,36.73307,-4.0
245,Kazan,551487,55.788738,49.122139,-11.0
246,Sergach,496802,55.530788,45.46611,-9.06
247,Vladimir,2013364,53.471401,102.654701,-27.74
248,Gagarin,562237,55.55291,34.995369,-2.44
249,Kozmodemyansk,543018,56.336666,46.57111,-8.0
250,Nizhniy Novgorod,520555,56.328674,44.002048,-7.0
251,Tver,480060,56.861938,35.893059,-3.24
252,Nolinsk,520041,57.55962,49.936291,-8.44
253,Krasnyye Baki,541796,57.131001,45.15992,-7.74
254,Yuryevets,466258,57.320068,43.104099,-5.84
255,Ivanovo,555312,56.994167,40.985832,-5.69
256,Kostroma,543878,57.770832,40.934444,-4.0
257,Uglich,479532,57.5275,38.331669,-3.31
258,Kotelnich,543737,58.308899,48.348,-6.06
259,Buy,570508,58.478611,41.529999,-4.19
260,Rybinsk,500004,58.044601,38.84259,-4.29
261,Maksatikha,531979,57.796951,35.882542,-3.84
262,Kirov,548408,58.596649,49.660069,-5.39
263,Vokhma,472887,58.930302,46.758591,-6.14
264,Kologriv,546282,58.82748,44.317768,-6.31
265,Cherepovets,569223,59.133331,37.900002,-7.29
266,Oparino,515175,59.851791,48.278259,-7.66
267,Totma,481960,59.974724,42.764168,-8.66
268,Babayevo,580006,59.3936,35.937099,-6.16
269,Trubchevsk,481350,52.5798,33.7644,-0.06
270,Krasnaya Gora,542788,52.9995,31.602301,1.0
271,Babruysk,630468,53.150002,29.233334,0.49
272,Slutsk,621741,53.027401,27.5597,-4.51
273,Baranavichy,630429,53.132702,26.013901,-3.89
274,Bryansk,2026070,52.02306,106.84333,-22.0
275,Roslavl,501283,53.952782,32.863892,0.36
276,Mahilyow,625665,53.913891,30.33639,0.69
277,Marina Horka,625409,53.508999,28.146999,1.0
278,Minsk,625144,53.900002,27.566668,1.0
279,Lida,626081,53.883331,25.299721,-0.89
280,Smolensk,491687,54.781666,32.040001,0.69
281,Orsha,624079,54.515278,30.405277,0.86
282,Vilnius,593116,54.689159,25.2798,0.0
283,Kaliningrad,554234,54.70649,20.51095,0.0
284,Dokshytsy,629002,54.892422,27.76894,-0.44
285,Utena,593672,55.5,25.6,0.91
286,Belyy,577576,55.840199,32.941898,-0.39
287,Birzai,600438,56.200001,24.75,1.01
288,Silale,594693,55.490559,22.181391,-0.99
289,Velikiye Luki,476077,56.34,30.54517,0.44
290,Opochka,515155,56.71048,28.661739,0.19
291,Madona,457714,56.853291,26.21698,0.24
292,Riga,456172,56.950001,24.1,1.0
293,Liepaja,457954,56.51667,21.01667,1.0
294,Ostashkov,514259,57.146671,33.107529,-2.44
295,Kholm,549786,59.26667,32.849998,-3.89
296,Ventspils,454310,57.389439,21.56056,1.0
297,Bologoye,575349,57.879902,34.1068,-3.29
298,Staraya Russa,489088,57.994389,31.360809,-1.89
299,Pskov,504341,57.813599,28.3496,0.0
300,Valga,587876,57.777809,26.0473,-1.0
301,Kuressaare,590939,58.248058,22.503889,0.0
302,Gdov,561679,58.740559,27.81222,-2.31
303,Parnu,589580,58.38588,24.49711,-0.34
304,Tikhvin,483019,59.645111,33.529369,-4.44
305,Lyuban,532637,59.349998,31.216669,-3.34
306,Kingisepp,548602,59.37331,28.61343,-3.31
307,Tartu,588335,58.380619,26.72509,-1.0
308,Khanty-Mansiysk,1503772,61.004169,69.001938,-33.0
309,Ivdel,1505260,60.691109,60.420559,-23.04
310,Cherdyn,569359,60.40295,56.47868,-14.06
311,Gayny,561698,60.307072,54.32412,-12.74
312,Syktyvkar,485239,61.676418,50.80994,-19.0
313,Ust-Kulom,478050,61.686359,53.690201,-16.24
314,Nizhnesortymskiy,7287775,62.439651,71.760292,-40.24
315,Sosva,1491267,59.17662,61.855789,-19.89
316,Ukhta,479411,63.567051,53.683479,-21.04
317,Izhma,554830,65.008331,53.911282,-21.91
318,Muzhi,1498161,65.366669,64.666672,-39.44
319,Pechora,511794,65.147163,57.224388,-23.14
320,Vorkuta,1486910,67.5,64.0,-43.19
321,Naryan-Mar,523392,67.671257,53.086971,-24.91
322,Konosha,545353,60.973598,40.257,-9.64
323,Nyuksenitsa,516539,60.412777,44.239723,-6.64
324,Vozhega,471245,60.472462,40.22134,-7.19
325,Belozersk,577711,60.032631,37.795719,-8.91
326,Vyborg,470546,60.70763,28.752831,-11.0
327,Krasnoborsk,542423,61.55978,45.93396,-5.79
328,Velsk,475938,61.070061,42.098301,-8.56
329,Nyandoma,516647,61.669029,40.19907,-13.54
330,Pudozh,504269,61.809879,36.534538,-10.79
331,Petrozavodsk,509820,61.784912,34.346909,-20.0
332,Shenkursk,494884,62.1091,42.89595,-10.84
333,Bereznik,577240,62.855141,42.707191,-10.29
334,Medvezhyegorsk,527888,62.916668,34.466667,-13.29
335,Koslan,544084,63.456421,48.898911,-12.06
336,Sura,486163,53.887859,45.74192,-9.69
337,Segezha,497927,63.74147,34.322182,-12.41
338,Porosozero,506232,62.71912,32.727032,-14.44
339,Pinega,509483,64.700142,43.39362,-8.84
340,Kholmogory,549748,64.2229,41.655998,-8.0
341,Rabocheostrovsk,798536,64.985474,34.766109,-9.31
342,Kalevala,554318,65.199997,31.166668,-13.51
343,Umba,479071,66.687057,34.342918,-14.44
344,Murmansk,524305,68.979172,33.09251,-24.0
345,Nikel,522260,69.412849,30.221979,-17.0
346,Larnaca,146400,34.916672,33.629169,11.64
347,Paphos,146214,34.76667,32.416672,13.36
348,Rizokarpaso,146105,35.599998,34.375,15.21
349,Lefka,146392,35.110561,32.850559,12.12
350,Kas,308948,36.201759,29.637659,15.11
351,Iskenderun,311111,36.587181,36.17347,10.0
352,Osmaniye,303195,37.074169,36.24778,4.69
353,Silifke,300808,36.377781,33.934441,6.19
354,Alanya,324190,36.543751,31.999821,6.0
355,Antalya,323776,36.77409,30.71777,8.0
356,Marmaris,304782,36.855,28.27417,9.65
357,Batman,321836,37.887379,41.13221,6.0
358,Gaziantep,314829,37.083328,37.333328,4.55
359,Denizli,317106,37.84016,29.06982,1.0
360,Nigde,303827,37.965832,34.679352,-5.69
361,Eregli,315498,37.513329,34.046719,-3.89
362,Konya,306569,38.166672,32.5,2.0
363,Aksehir,324490,38.357498,31.416389,-3.41
364,Aydin,322830,37.845009,27.83963,8.0
365,Bitlis,321022,38.5,42.25,0.09
366,Bingol,321082,38.88472,40.493889,0.01
367,Elazig,315808,38.674309,39.223209,0.0
368,Malatya,304919,38.5,38.0,-1.0
369,Kayseri,308463,38.73695,35.49683,1.0
370,Cihanbeyli,318506,38.660721,32.92437,-2.79
371,Akhisar,324698,38.918522,27.840059,-2.0
372,Ayvalik,322673,39.31905,26.6954,8.27
373,Van,298113,38.5,43.5,0.0
374,Kirsehir,307515,39.145828,34.163891,1.0
375,Kutahya,305268,39.424171,29.98333,-2.0
376,Balikesir,322165,39.64917,27.88611,5.0
377,Yozgat,296560,39.583328,35.333328,-0.01
378,Kirikkale,307654,39.84528,33.50639,1.0
379,Yalova,738025,40.655022,29.27693,4.19
380,Bursa,750268,40.166672,29.08333,2.0
381,Bandirma,751077,40.352219,27.976669,3.0
382,Canakkale,749780,40.145561,26.406389,8.0
383,Agri,309647,39.71944,43.051392,-2.29
384,Kars,743942,40.416672,43.083328,-4.0
385,Erzurum,315367,40.0,41.5,-4.0
386,Erzincan,315372,39.75,39.5,-2.0
387,Sivas,300617,39.791649,37.001949,-2.0
388,Amasya,752014,40.666672,35.833328,4.0
389,Korgun,742657,40.734798,33.51844,-1.51
390,Karabük,862468,41.25,32.5,3.49
391,Duzce,747764,40.83889,31.163891,1.09
392,Belek,321580,36.862782,31.055559,8.0
393,Tekirdag,738927,40.978008,27.50852,5.0
394,Kirklareli,743166,41.735081,27.22521,2.16
395,Trabzon,738647,40.916672,39.833328,9.0
396,Giresun,746878,40.5,38.5,7.0
397,Carsamba,749704,41.198891,36.721939,9.0
398,Sinop,739598,41.771061,34.870949,6.84
399,Ermoupolis,262603,37.442268,24.94248,13.0
400,Karpathos,260895,35.507011,27.213221,12.0
401,Kissamos,259718,35.493889,23.65694,10.0
402,Souda,253456,35.48444,24.07444,10.0
403,Milos,256952,36.75,24.433331,13.0
404,Methoni,257122,36.819729,21.704861,7.0
405,Zakynthos,251280,37.791389,20.895281,12.0
406,Athens,264371,37.97945,23.716221,7.65
407,Tripoli,252601,37.508888,22.37944,7.0
408,Chios,259970,38.416672,26.0,8.0
409,Skyros,253614,38.904171,24.563061,11.0
410,Lamia,258620,38.900002,22.433331,7.0
411,Myrina,256930,39.879719,25.074169,7.0
412,Larisa,258576,39.637218,22.42028,6.11
413,Preveza,254698,38.950001,20.75,14.0
414,Ioannina,261779,39.6675,20.85083,4.51
415,Alexandroupoli,736928,40.8475,25.874439,10.24
416,Chrysoupolis,735747,40.985561,24.69389,6.0
417,Thessaloniki,734077,40.640282,22.94389,10.0
418,Kastoria,735927,40.51667,21.26667,1.94
419,Luqa,2562788,35.858891,14.48861,15.0
420,Cagliari,2525473,39.207378,9.13462,14.53
421,Sassari,3167096,40.727219,8.56028,14.0
422,Olbia,3172087,40.921371,9.48563,15.0
423,Oristano,2523964,39.903061,8.59194,14.0
424,Lampedusa,2524459,35.5,12.6,16.0
425,Gela,2524653,37.080341,14.23068,14.0
426,Catania,2525068,37.502129,15.08719,9.12
427,Sciacca,2523194,37.506931,13.08399,14.0
428,Reggio Calabria,2523630,38.11047,15.66129,15.0
429,Palermo,2523920,38.115822,13.35976,18.0
430,Catanzaro,2525059,38.890789,16.5987,13.0
431,Lecce,3174953,40.357029,18.17202,13.27
432,Scalea,2523207,39.813,15.79558,14.76
433,Policoro,3170384,40.21151,16.67259,12.67
434,Napoli,3172394,40.833328,14.25,13.9
435,Caserta,3179866,41.083221,14.33493,13.91
436,Ponza,3170189,40.893799,12.9625,15.34
437,Bari,3182351,41.117729,16.851179,12.02
438,Vieste,3164387,41.88245,16.174959,13.91
439,Roma,3169070,41.894741,12.4839,13.61
440,Pescara,3171168,42.460239,14.21021,16.0
441,Terni,3165771,42.567131,12.64987,7.42
442,Grosseto,3175786,42.77142,11.10794,13.0
443,Ancona,3183089,43.59816,13.51008,16.0
444,Arezzo,3182884,43.461391,11.87691,12.66
445,Pisa,3170647,43.71553,10.39659,14.0
446,San Marino,3168070,43.933331,12.45,8.57
447,Bologna,3181928,44.493809,11.33875,1.0
448,Ferrara,3177090,44.826778,11.62071,1.0
449,Genoa,6542282,44.412861,8.95729,5.0
450,Trieste,3165185,45.648609,13.78,12.53
451,Venezia,3164603,45.43861,12.32667,8.48
452,Verona,3164527,45.434189,10.99779,2.56
453,Milano,3173435,45.464272,9.18951,0.74
454,Torino,3165524,45.070492,7.68682,-0.08
455,Aosta,3182997,45.737358,7.3166,-1.81
456,Tarvisio,3165912,46.51083,13.59417,0.0
457,Dobbiaco,3177571,46.7425,12.23139,-0.49
458,Trento,3165243,46.067871,11.12108,-0.73
459,Bolzano,3181913,46.492722,11.33358,-1.02
460,Kurdzhali,729794,41.650002,25.366671,3.0
461,Sandanski,727447,41.566669,23.283331,-0.29
462,Burgas,732770,42.506062,27.46781,5.0
463,Sliven,727079,42.685829,26.32917,4.0
464,Varna,726050,43.216671,27.91667,3.0
465,Razgrad,727696,43.533329,26.51667,1.96
466,Vidin,725905,43.990002,22.872499,2.19
467,Mangalia,673921,43.799999,28.58333,-1.0
468,Turnu Magurele,664437,43.75,24.866671,6.0
469,Calarasi,673150,44.216671,27.299999,-0.19
470,Videle,662976,44.278061,25.524441,2.0
471,Grivita,676706,46.150002,27.65,-4.79
472,Moldova Noua,672912,44.737499,21.666941,11.0
473,Ploiesti,670474,44.950001,26.01667,2.0
474,Curtea de Arges,679907,45.133331,24.683331,-1.19
475,Targu Jiu,665010,45.049999,23.283331,1.74
476,Resita,668954,45.300831,21.88917,11.0
477,Ramnicu Sarat,668873,45.383331,27.049999,-3.24
478,Brasov,683844,45.648609,25.606131,-5.41
479,Sibiu,667268,45.799999,24.15,0.0
480,Deva,679452,45.883331,22.9,-2.09
481,Arad,686254,46.183331,21.316669,5.56
482,Targu Ocna,665002,46.283329,26.616671,1.0
483,Odorheiu Secuiesc,671964,46.299999,25.299999,-5.09
484,Baisoara,685773,46.583328,23.466669,1.65
485,Holod,676070,46.783329,22.133329,7.0
486,Negresti,672375,46.833328,27.433331,0.52
487,Bistrita,684657,47.13316,24.500111,-5.74
488,Supuru de Jos,665758,47.466671,22.799999,5.46
489,Suceava,665850,47.633331,26.25,0.0
490,Sighetu Marmatiei,667227,47.933331,23.883329,5.0
491,Neum,3194514,42.923328,17.615561,13.41
492,Sarajevo,3191281,43.84864,18.35644,9.0
493,Tuzla,3188582,44.542782,18.669439,14.0
494,Banja Luka,3204541,44.775829,17.18556,12.0
495,Split,3190261,43.508911,16.43915,15.0
496,Dubrovnik,3201047,42.648071,18.092159,13.49
497,Zadar,3186952,44.11972,15.24222,13.0
498,Karlovac,3198259,45.487221,15.54778,7.0
499,Rijeka,3191648,45.34306,14.40917,12.65
500,Pula,3192224,44.868328,13.84806,12.71
501,Varazdin,3188383,46.30444,16.33778,6.03
502,Tirana,3183875,41.327499,19.81889,13.0
503,Sarande,363243,39.875561,20.00528,14.0
504,Skopje,785842,42.0,21.433331,1.0
505,Prilep,786735,41.34639,21.55444,1.0
506,Vranje,784227,42.551392,21.90028,1.0
507,Podgorica,3193044,42.441109,19.263611,12.61
508,Cuprija,791678,43.927502,21.370001,8.0
509,Pozega,786824,43.84639,20.041389,7.52
510,Belgrade,792680,44.804008,20.46513,7.47
511,Zrenjanin,783814,45.38361,20.381941,7.54
512,Sombor,3190342,45.77417,19.112221,7.0
513,Budapest,3054643,47.498009,19.039909,4.0
514,Pecs,3046526,46.083328,18.23333,5.61
515,Szeged,715429,46.252998,20.148239,8.0
516,Eger,721239,47.902649,20.373289,3.19
517,Debrecen,721472,47.533329,21.633329,5.63
518,Sopron,3045190,47.685009,16.59049,4.0
519,Szolnok,715126,47.183331,20.200001,7.0
520,Lesko,766452,49.4701,22.33042,4.09
521,Nowy Sacz,763534,49.621769,20.69705,0.0
522,Bielsko-Biala,3103402,49.822449,19.04686,6.06
523,Sandomierz,7532761,50.679501,21.747,5.0
524,Czestochowa,3100946,50.796459,19.12409,3.0
525,Klodzko,3096053,50.434879,16.661449,5.34
526,Wlodawa,755474,51.549999,23.549999,2.0
527,Kozienice,7533191,51.585999,21.536501,0.59
528,Lodz,3093133,51.75,19.466669,1.0
529,Wroclaw,3081368,51.099998,17.033331,3.0
530,Leszno,3093524,51.84034,16.57494,1.0
531,Warszawa,6695624,52.23547,21.04191,0.47
532,Poznan,3088171,52.406921,16.92993,1.0
533,Gorzow Wielkopolski,3098722,52.73679,15.22878,0.41
534,Bialystok,776069,53.133331,23.15,-0.56
535,Ostroleka,762909,53.086208,21.575661,-1.0
536,Mikolajki,764777,53.802879,21.57011,-1.0
537,Torun,3083271,53.013748,18.598141,-1.0
538,Chojnice,3101672,53.695541,17.557011,-0.94
539,Resko,3087195,53.773071,15.40607,0.0
540,Gdansk,3099434,54.352051,18.64637,-2.0
541,Ustka,3082756,54.580479,16.86194,-0.29
542,Poprad,723846,49.06144,20.297979,0.0
543,Zvolen,3056459,48.574421,19.15324,1.0
544,Zilina,3056508,49.223148,18.73941,6.45
545,Bratislava,3060972,48.148159,17.106741,3.1
546,Trnava,3057124,48.377399,17.587231,3.98
547,Ostrava,3068799,49.834648,18.28204,9.0
548,Brno,3078610,49.195221,16.60796,2.39
549,Liberec,3071961,50.767109,15.05619,2.91
550,Prague,3067696,50.088039,14.42076,1.56
551,Ceske Budejovice,3077916,48.974468,14.47434,5.49
552,Sankt Polten,2766429,48.200001,15.63333,6.0
553,Vienna,2761369,48.208488,16.37208,4.13
554,Graz,2778067,47.066669,15.45,2.15
555,Schwerin,2834282,53.629372,11.41316,-1.0
556,Andorra la Vella,3041563,42.50779,1.52109,-5.51
557,Lisbon,2267057,38.716671,-9.13333,11.13
558,Braganca,2742027,41.80582,-6.75719,0.71
559,Portalegre,2264508,39.293789,-7.43122,8.0
560,Castelo Branco,2269514,39.822189,-7.49087,6.74
561,Manteigas,2737936,40.402802,-7.53977,5.19
562,Vila Real,2732438,41.300621,-7.74413,3.74
563,Beja,2270985,38.01506,-7.86323,7.0
564,Faro,2268339,37.019371,-7.93223,11.0
565,Porto,2735943,41.149609,-8.61099,10.59
566,Monte Real,2265844,39.8521,-8.86349,12.0
567,Almeria,2521886,36.838139,-2.45974,13.0
568,Torrox,2510245,36.757931,-3.95233,9.5
569,Cádiz,6356927,36.500881,-6.26843,12.1
570,Ronda,2511730,36.74231,-5.16709,12.15
571,Murcia,2513416,37.987041,-1.13004,13.93
572,Sevilla,2510911,37.382408,-5.97613,10.0
573,Jaen,2516395,37.76667,-3.78333,6.0
574,Badajoz,2521420,38.877892,-6.97061,8.0
575,Caceres,2520611,39.47649,-6.37224,6.94
576,Cordoba,2519240,37.883331,-4.76667,8.0
577,Ibiza,2516479,38.908829,1.43296,15.0
578,Palma de Mallorca,6533961,39.569511,2.64745,14.0
579,Albacete,2522258,38.98333,-1.85,5.0
580,Valencia,2509954,39.469749,-0.37739,11.49
581,Ciudad Real,2519402,38.98333,-3.93333,3.76
582,Toledo,2510409,39.858101,-4.02263,5.0
583,Madrid,3117735,40.4165,-3.70256,5.65
584,Cuenca,3124132,40.066669,-2.13333,1.21
585,Salamanca,3111108,40.966671,-5.65,3.0
586,Teruel,3108126,40.3456,-1.10646,11.0
587,Zamora,3104342,41.5,-5.75,3.0
588,Castello de la Plana,2519752,39.98333,-0.03333,11.52
589,Valladolid,3106672,41.655182,-4.72372,1.0
590,Tarragona,3108288,41.116669,1.25,11.0
591,Zaragoza,3104324,41.656059,-0.87734,5.71
592,Aranda de Duero,3129877,41.67041,-3.6892,0.19
593,Almaden,2521938,38.77541,-4.83156,4.59
594,Oropesa,2513069,39.917259,-5.17371,2.21
595,Leon,3118532,42.599998,-5.56667,0.0
596,Vigo,3105971,43.5639,-6.62824,7.0
597,A Coruna,3119841,43.371349,-8.396,5.88
598,Lugo,3117814,43.0,-7.56667,5.0
599,Gijon,3121424,43.535728,-5.66152,7.0
600,Santander,3109718,43.464722,-3.80444,7.0
601,Burgos,3127461,42.349998,-3.7,2.0
602,Bilbao,3128026,43.262711,-2.92528,4.34
603,Logrono,3118150,42.466671,-2.45,4.34
604,Pamplona,3114472,42.816872,-1.64323,5.81
605,Lleida,3118514,41.616669,0.61667,8.89
606,Girona,3121456,41.983109,2.82493,7.0
607,Valladolid,3106672,41.655182,-4.72372,1.0
608,Barcelona,3128760,41.38879,2.15899,10.5
609,Manresa,3117533,41.724979,1.82656,10.53
610,Calamocha,3127059,40.919331,-1.2975,11.0
611,Carrion de los Condes,3126161,42.341301,-4.60071,1.34
612,Soria,3108681,41.764011,-2.46883,-0.34
613,Peniscola,3113860,40.357399,0.40692,14.19
614,Segovia,3109256,40.950001,-4.11667,6.0
615,Xinzo de Limia,3121404,42.063499,-7.72459,2.76
616,Guadalajara,3121070,40.633331,-3.16667,5.63
617,Fisterra,3122426,42.904919,-9.26289,5.0
618,Siguenza,3108961,41.06892,-2.64308,0.46
619,Riopar,2511818,38.5,-2.45,2.06
620,Huelva,2516548,37.258331,-6.95083,11.34
621,Ponferrada,3113236,42.546638,-6.59619,0.74
622,Perpignan,2987914,42.697639,2.89541,8.0
623,Foix,3018174,42.966671,1.6,7.0
624,Narbonne,2990919,43.183331,3.0,7.34
625,Montpellier,2992166,43.61092,3.87723,7.96
626,Toulouse,2972315,43.604259,1.44367,8.42
627,Pau,2988358,43.299999,-0.36667,5.31
628,Biarritz,3032797,43.480122,-1.55558,6.98
629,Mont-de-Marsan,2992771,43.890221,-0.49713,5.7
630,Bordeaux,3031582,44.840439,-0.5805,5.44
631,Auch,3036281,43.650002,0.58333,7.52
632,Agen,3038634,44.200001,0.63333,6.0
633,Bergerac,3033391,44.849998,0.48333,6.0
634,Cahors,3029213,44.4491,1.43663,4.91
635,Aurillac,3036016,44.916672,2.45,1.14
636,Rodez,2983154,44.352581,2.57338,0.86
637,Albi,3038261,43.929798,2.148,4.85
638,Mende,2994617,44.51667,3.5,-6.24
639,Millau,2993875,44.099998,3.08333,2.0
640,Le Puy-en-Velay,3002465,45.043659,3.88523,3.0
641,Clermont-Ferrand,3024635,45.779659,3.08628,2.0
642,Limoges,2998286,45.831532,1.2578,2.0
643,Avignon,3035681,43.948341,4.80892,9.2
644,Marseille,2995469,43.296951,5.38107,11.52
645,Nice,2990440,43.703129,7.26608,9.52
646,Gap,3016702,44.566669,6.08333,2.69
647,Valence,2971053,44.933331,4.9,4.0
648,Grenoble,3014728,45.166672,5.71667,3.48
649,Lyon,2996944,45.748459,4.84671,4.23
650,Angouleme,3037598,45.650002,0.15,4.47
651,Royan,2982343,45.62846,-1.0281,4.0
652,La Rochelle,3006787,46.166672,-1.15,4.0
653,Poitiers,2986495,46.583328,0.33333,3.0
654,La Roche-sur-Yon,3006767,46.666672,-1.43333,4.0
655,Saint-Nazaire,2977921,47.283329,-2.2,4.6
656,Nantes,2990969,47.217251,-1.55336,4.68
657,Angers,3037656,47.466671,-0.55,5.0
658,Tours,2972191,47.383331,0.68333,5.0
659,Chateauroux,3026204,46.816669,1.7,2.7
660,Brive-la-Gaillarde,3029974,45.150002,1.53333,4.36
661,Montlucon,2992292,46.333328,2.6,1.71
662,Bourges,3031005,47.083328,2.4,2.35
663,Bourg-en-Bresse,3031009,46.205742,5.2258,3.72
664,Dijon,3021372,47.316669,5.01667,5.45
665,Besancon,3033123,47.248779,6.01815,3.39
666,Mulhouse,2991214,47.75,7.33333,2.68
667,Strasbourg,2973783,48.58342,7.74296,4.05
668,Metz,2994160,49.11911,6.17269,3.33
669,Basel,2661604,47.558399,7.57327,2.77
670,Zurich,2657896,47.366669,8.55,2.2
671,Vaduz,3042030,47.14151,9.52154,2.47
672,La Chaux-de-Fonds,2660076,47.09993,6.82586,0.75
673,Brussels,2800866,50.850449,4.34878,3.0
674,Amsterdam,2759794,52.374031,4.88969,1.65
675,Rotterdam,2747891,51.922501,4.47917,2.81
676,Groningen,2755251,53.21917,6.56667,1.0
677,Copenhagen,2618425,55.675941,12.56553,1.0
678,Odense,2615876,55.395939,10.38831,1.0
679,Arhus,2624652,56.156738,10.21076,1.45
680,Aalborg,2624886,57.048,9.9187,0.99
681,Esbjerg,2622447,55.466671,8.45,0.74
682,Horsens,2619771,55.860661,9.85034,1.2
683,Grenaa,2621230,56.415779,10.87825,2.0
684,Holstebro,2620046,56.360088,8.61607,1.0
685,Frederikshavn,2621927,57.440731,10.53661,2.11
686,Thisted,2611755,56.955231,8.69491,1.01
687,Husavik,2629833,66.044891,-17.33885,-10.0
688,Siglufjordur,2627130,66.151337,-18.905121,-10.0
689,Vestmannaeyjar,3412093,63.44273,-20.27339,-5.0
690,Reykjavik,3413829,64.135483,-21.895411,-7.46
691,Vopnafjörður,2625189,65.755501,-14.8252,-6.0
692,Isafjoerdur,3415667,66.075493,-23.124001,-12.91
693,Bjarnanes,2632811,64.315399,-15.24182,-2.66
694,County Limerick,2962941,52.5,-8.75,0.0
695,Sligo,2961422,54.25,-8.66667,-0.24
696,Belmullet,2966208,54.224998,-9.99083,6.76
697,County Galway,2964179,53.333328,-9.0,-0.06
698,Dublin,2964574,53.34399,-6.26719,-1.5
699,Dundalk,2964540,54.0,-6.41667,-1.0
700,Kilkenny,2963397,52.583328,-7.25,0.0
701,Cork,2965140,51.897968,-8.47061,1.0
702,Portmagee,2962021,51.886108,-10.36167,5.96
703,Belfast,2655984,54.583328,-5.93333,2.0
704,Douglas,2651073,55.549999,-3.85,0.67
705,Penzance,2640377,50.11861,-5.53715,3.4
706,Exeter,2649808,50.723598,-3.52751,2.0
707,Plymouth,2640194,50.371529,-4.14305,2.99
708,Bristol,2654675,51.455231,-2.59665,1.61
709,London,2643743,51.50853,-0.12574,0.99
710,Bournemouth,2655095,50.720482,-1.8795,1.4
711,Ipswich,2646057,52.05917,1.15545,1.76
712,Peterborough,2640354,52.573639,-0.24777,1.0
713,Norwich,2641181,52.627831,1.29834,1.62
714,Birmingham,2655603,52.481419,-1.89983,0.27
715,Leicester,2644668,52.638599,-1.13169,0.5
716,Cardiff,2653822,51.48,-3.18,1.77
717,Swansea,2636432,51.620789,-3.94323,1.64
718,Milford Haven,2642534,51.71278,-5.0341,1.0
719,Holyhead,2646686,53.30621,-4.63211,1.6
720,Liverpool,2644210,53.41058,-2.97794,1.5
721,Manchester,2643123,53.480949,-2.23743,1.2
722,Stoke-on-Trent,2636841,53.00415,-2.18538,0.82
723,Sheffield,2638077,53.382969,-1.4659,0.65
724,Hull,2645425,53.744598,-0.33525,1.41
725,Leeds,2644688,53.796478,-1.54785,0.65
726,Carlisle,2653775,54.8951,-2.9382,-3.0
727,Newcastle upon Tyne,2641673,54.973282,-1.61396,-0.39
728,Middlesbrough,2642607,54.576229,-1.23483,0.38
729,Glasgow,2648579,55.86515,-4.25763,0.63
730,Edinburgh,2650225,55.952061,-3.19648,0.67
731,Aberdeen,2657832,57.143688,-2.09814,-2.0
732,Inverness,2646088,57.47908,-4.22398,2.32
733,Wick,2633982,58.433331,-3.08333,2.56
734,Stornoway,2636790,58.209251,-6.38649,1.0
735,Torshavn,2611396,62.009731,-6.77164,-1.0
736,Brae,2654970,60.396351,-1.35296,1.44
737,Daliburgh,2651589,57.166672,-7.4,2.0
738,Helsinki,658224,60.60778,21.438101,-4.0
739,Mariehamn,3041732,60.09726,19.934811,-1.0
740,Hanko,659101,59.833328,22.950001,-2.16
741,Kökar,651989,59.916672,21.0,-1.0
742,Turku,633679,60.451481,22.26869,-4.0
743,Lahti,649360,60.98267,25.66151,-10.0
744,Kuopio,650224,62.89238,27.677031,-21.0
745,Pori,640999,61.48333,21.783331,-9.0
746,Savonlinna,637292,61.8699,28.87999,-15.0
747,Jämsä,656084,61.833328,25.25,-16.11
748,Ilomantsi,656709,62.671619,30.93276,-20.0
749,Kaskinen,653758,62.384441,21.22331,-8.99
750,Multia,645710,62.416672,24.783331,-15.96
751,Jakobstad,656130,63.674858,22.70256,-16.0
752,Vaasa,632978,63.096001,21.61577,-15.0
753,Kalajoki,654837,64.25,23.950001,-16.81
754,Kajaani,654899,64.22728,27.72846,-25.0
755,Utsjoki,633268,69.908638,27.028431,-24.29
756,Suomussalmi,635696,64.886848,28.90778,-17.29
757,Kittila,652590,67.666672,24.9,-30.0
758,Ranua,639888,65.916672,26.533331,-17.29
759,Oulu,643492,65.01236,25.468161,-25.0
760,Kuusamo,649924,65.966667,29.183331,-24.0
761,Inari,656657,68.90596,27.028811,-26.0
762,Salla,638074,66.833328,28.66667,-13.99
763,Pello,642367,66.783333,23.91667,-23.0
764,Kautokeino,779327,69.011513,23.04151,-23.99
765,Kalmar,2702261,56.661572,16.361629,2.0
766,Kristianstad,2699310,56.031288,14.15242,1.45
767,Ljungby,2694560,56.833241,13.94082,0.53
768,Visby,2662689,57.640888,18.296021,-1.0
769,Norrkoping,2688368,58.594189,16.1826,0.24
770,Hultsfred,2704398,57.488152,15.84357,-1.06
771,Sala,2680662,59.91993,16.60655,-1.52
772,Stockholm,2673730,59.332581,18.064899,-0.72
773,Karlskoga,2701715,59.326672,14.52386,-2.55
774,Mora,2691400,61.007038,14.54316,-4.0
775,Bengtsfors,2723079,59.029121,12.23207,-1.79
776,Arjaeng,2725379,59.39217,12.13336,-3.0
777,Hudiksvall,2704613,61.72897,17.10358,-2.44
778,Ostersund,2685750,63.179199,14.63566,-9.0
779,Skelleftea,602913,64.750671,20.952789,-19.0
780,Umea,602150,63.828419,20.25972,-15.0
781,Lycksele,2693347,64.595367,18.67351,-13.0
782,Hammarstrand,2708152,63.110409,16.353769,-11.16
783,Mala,2693152,65.185013,18.74243,-15.0
784,Arvidsjaur,2725136,65.590332,19.166821,-17.23
785,Kiruna,605155,67.855721,20.22513,-21.0
786,Oslo,3143244,59.912731,10.74609,-3.47
787,Porsgrunn,3142657,59.140541,9.6561,-3.0
788,Kristiansand,3149318,58.146709,7.9956,-2.0
789,Stavanger,3137115,58.970051,5.73332,1.0
790,Haugesund,3153623,59.41378,5.268,1.0
791,Innbygda,3133819,61.314838,12.26374,-6.94
792,Flisa,7626328,60.609219,12.01543,-4.0
793,Ringebu,3141850,61.51667,10.16667,-13.24
794,Nesbyen,3144733,60.568089,9.10274,-9.79
795,Bismo,7626332,61.883869,8.26914,-17.06
796,Ulvik,3133311,60.567188,6.91871,-4.0
797,Forde,3156804,61.452171,5.85717,0.98
798,Namsos,3145023,64.46624,11.49572,-3.45
799,Trondheim,3133880,63.430489,10.39506,-2.95
800,Folldal,3156868,62.132462,9.9968,-11.41
801,Steinsdalen,7626377,64.298752,10.51284,-3.48
802,Sjoholt,3139557,62.483711,6.81062,-1.72
803,Bergen,3161732,60.39299,5.32415,0.0
804,Sortland,3137405,68.694939,15.41618,-1.4
805,Bodo,3160881,67.279999,14.40501,-4.0
806,Vik,3131781,65.312538,12.16734,-1.0
807,Arendal,3162955,58.46151,8.77253,-2.0
808,Båtsfjord,780714,70.635063,29.721491,-4.66
809,Honningsvag,779554,70.982094,25.970369,-5.42
810,Alta,780946,69.976753,23.296341,-13.43
811,Hasvik,779641,70.591637,22.302719,-4.95
812,Tromso,3133895,69.648903,18.95508,-12.03
813,Skaland,3139431,69.444557,17.298321,-8.43
814,Olonkinbyen,7535941,70.922096,-8.7187,-1.91
815,Nancy,2990999,48.683331,6.2,3.99
816,Chaumont,3025892,48.116669,5.13333,6.0
817,Troyes,2971549,48.299999,4.08333,5.44
818,Auxerre,3035843,47.799999,3.56667,6.0
819,Reims,2984114,49.25,4.03333,4.11
820,Fira,252920,36.42107,25.43087,11.0
821,Sharm ash Shaykh,349340,27.85183,34.304989,20.0
822,Braunschweig,2945024,52.26667,10.53333,-1.0
823,Innsbruck,2775220,47.262661,11.39454,9.0
824,Linz,2772400,48.306389,14.28611,6.0
825,Salzburg,2766823,47.416672,13.25,-1.0
826,Luxembourg,2960316,49.611671,6.13,2.0
827,Sofia,727011,42.69751,23.32415,3.0
828,Stara Zagora,726848,42.432781,25.641939,4.0
829,Geneva,6458783,46.208038,6.12737,2.08
830,Sion,2658576,46.22908,7.35942,-2.98
831,Nicosia,146268,35.166672,33.366669,10.0
832,Plzen,3068160,49.747471,13.37759,-0.6
833,Tallinn,588409,59.436958,24.753531,-2.0
834,Rakvere,589165,59.34639,26.355829,-3.01
835,Jyvaeskylae,655194,62.23333,25.73333,-15.89
836,Rovaniemi,638936,66.5,25.716669,-18.0
837,Saint-Dizier,2980816,48.633331,4.95,5.43
838,Orleans,2989317,47.902889,1.90389,4.31
839,Chartres,3026467,48.44685,1.48925,4.4
840,Melun,2994651,48.533329,2.66667,5.49
841,Paris,2968815,48.853401,2.3486,5.28
842,Evreux,3019265,49.024139,1.15082,3.36
843,Alencon,3038230,48.433331,0.08333,6.0
844,Caen,3029241,49.185848,-0.35912,3.97
845,Le Mans,3003603,48.0,0.2,5.42
846,Rennes,2983990,48.11198,-1.67429,5.0
847,Lorient,2997577,47.75,-3.36667,4.0
848,Brest,3030300,48.400002,-4.48333,4.24
849,Saint-Brieuc,2981280,48.51667,-2.78333,4.35
850,Cherbourg-Octeville,3025466,49.639839,-1.61636,3.53
851,Rouen,2982652,49.44313,1.09932,3.0
852,Beauvais,3034006,49.433331,2.08333,4.03
853,Amiens,3037854,49.900002,2.3,2.0
854,Le Havre,3003796,49.493801,0.10767,4.03
855,Boulogne-sur-Mer,3031133,50.716671,1.61667,3.5
856,Calais,3029162,50.958099,1.85205,3.32
857,Dunkerque,3020686,51.049999,2.36667,3.0
858,Lille,2998324,50.632969,3.05858,3.0
859,Arras,3036784,50.293011,2.78186,2.5
860,Compiegne,3024066,49.417938,2.82606,3.8
861,Laon,3007477,49.566669,3.61667,3.0
862,Maubeuge,2995150,50.278751,3.97267,3.0
863,Charleville-Mezieres,3026613,49.76667,4.71667,3.0
864,Verdun,2969958,49.166672,5.38333,4.65
865,Patra,255683,38.244438,21.73444,12.0
866,Zagreb,3186886,45.814442,15.97798,7.0
867,Osijek,3193935,45.551109,18.69389,7.0
868,Slavonski Brod,3190586,45.160278,18.01556,12.0
869,Carndonagh,2965761,55.25,-7.26667,4.0
870,Gaza,281133,31.5,34.466671,12.0
871,Carbonia,2525362,39.167221,8.52222,14.73
872,Capri,3180630,40.550732,14.24263,13.88
873,Firenze,3176959,43.76667,11.25,14.0
874,Parma,3171457,44.802662,10.32898,1.64
875,Kaunas,598316,54.900002,23.9,1.0
876,Klaipeda,598098,55.71722,21.1175,1.0
877,Tangier,2530335,35.780579,-5.81365,13.32
878,Bastia,3034640,42.702782,9.45,12.55
879,Ajaccio,3038334,41.927231,8.73462,13.0
880,Eindhoven,2756253,51.44083,5.47778,2.28
881,Enschede,2756071,52.21833,6.89583,0.58
882,Bucharest,683506,44.432251,26.10626,2.0
883,Cluj-Napoca,681290,46.76667,23.6,1.56
884,Timisoara,665087,45.749439,21.227221,7.67
885,Iasi,675810,47.166672,27.6,0.0
886,Novi Sad,3194360,45.251671,19.836941,7.55
887,Pristina,786714,42.672722,21.16688,6.0
888,Goeteborg,2711537,57.707161,11.96679,-2.0
889,Jonkoping,2702979,57.781448,14.15618,-1.0
890,Linkoping,2694762,58.410858,15.62157,0.25
891,Orebro,2686657,59.27412,15.2066,-2.0
892,Bratislava,3060972,48.148159,17.106741,3.1
893,Kosice,724443,48.713951,21.25808,2.0
894,Nitra,3058531,48.307629,18.08453,3.87
895,Homs,169577,34.726822,36.723389,8.81
896,Aleppo,170063,36.201241,37.161171,8.61
897,Tunis,2464470,36.81897,10.16579,14.35
898,Istanbul,745044,41.01384,28.949659,7.95
899,Kiev,703448,50.433334,30.516666,0.66
900,Szczecin,3083829,53.42894,14.55302,0.0
901,Greifswald,2917788,54.099998,13.38333,-1.44
902,Neubrandenburg,2866135,53.566669,13.26667,-1.66
903,Zwolle,2743477,52.512501,6.09444,2.0
904,Are,2725432,63.39835,13.08019,-12.06
905,Storuman,2671530,65.095901,17.11731,-12.0
906,Arjeplog,2725372,66.051727,17.886061,-21.69
907,Jokkmokk,2702997,66.606651,19.82324,-28.51
908,Apatity,581357,67.56414,33.403099,-17.01
909,Kovdor,543508,67.566162,30.47576,-15.69
910,Longyearbyen,2729907,78.218597,15.64007,-2.0
911,Spitsbergen,7535696,78.052902,17.709961,-2.0
912,Vík,2625252,63.419701,-19.00831,-5.0
913,Saudarkrokur,2627309,65.746109,-19.639441,-4.31
914,Raufarhöfn,2627642,66.44265,-15.9486,-1.94
915,Reyðarfjörður,2632428,65.031639,-14.21832,-6.0
916,Miðgarðar,2628310,66.537712,-17.95118,-2.31
917,Norðurland Eystra,3337404,65.5,-17.0,-10.0
918,Norðurland Vestra,3337403,65.333328,-20.0,-15.66
919,Austurland,3337405,65.0,-15.0,-6.0
920,Namsos,3145023,64.46624,11.49572,-3.45
921,Kandalaksha,553190,67.162003,32.412289,-18.79
922,Lovozero,533933,68.004997,35.011665,-15.91
923,Benghazi,88319,32.116669,20.066669,18.06
924,Surt,2210554,31.20892,16.588659,17.71
925,Misratah,2214846,32.375351,15.09254,16.56
926,Waddan,2209055,29.1614,16.13904,13.46
927,Tobruk,81302,32.083611,23.976391,11.01
928,Sabha,2212775,27.037661,14.42832,14.49
929,Awjilah,88533,29.108061,21.28694,10.81
930,Al Jawf,88962,24.1989,23.29093,10.59
931,Bani Suwayf,359173,29.074409,31.097851,8.59
932,Asyut,359783,27.18096,31.18368,13.0
933,Siwah,347863,29.20409,25.51952,10.71
934,Athlone,2966839,53.433331,-7.95,-0.49
935,Kinlochbervie,2645401,58.458691,-5.04332,-0.44
936,Oban,2641108,56.412689,-5.47062,0.69
937,Stranraer,2636719,54.90234,-5.02731,2.0
938,Berwick-Upon-Tweed,2655819,55.783329,-2.0,1.0
939,Brighton,2654710,50.828381,-0.13947,0.96
940,Oxford,2640729,51.75222,-1.25596,0.86
941,Llanidloes,2643990,52.449772,-3.53997,-1.16
942,Le Creusot,3004427,46.80714,4.41632,3.0
