,City,ID,Lat,Lon,Temp
0,Friedrichshafen,2924585,47.650002,9.48333,6.17
1,Freiburg,2925177,47.995899,7.85222,7.79
2,Stuttgart,2825297,48.782318,9.177019999999999,7.0
3,Wuerzburg,2805615,49.787781,9.936110000000001,6.45
4,Pforzheim,2853969,48.883331,8.7,8.02
5,Crailsheim,2939797,49.134440999999995,10.07193,5.93
6,Ulm,2820256,48.398410999999996,9.99155,5.21
7,Memmingen,2871992,47.983719,10.18527,5.22
8,Augsburg,2954172,48.366669,10.88333,4.86
9,Rotthalmunster,2843682,48.35825,13.201620000000002,5.0
10,Muenchen,2867714,48.137428,11.57549,4.99
11,Regensburg,2849483,49.014998999999996,12.09556,5.26
12,Bayreuth,2951825,49.948059,11.578330000000001,6.18
13,Nuremberg,2861650,49.447781,11.06833,5.85
14,Zwickau,2803560,50.73333,12.5,4.79
15,Cottbus,2939811,51.76667,14.333329999999998,2.47
16,Chemnitz,2940132,50.833328,12.91667,5.26
17,Leipzig,2879139,51.339619,12.37129,6.47
18,Erfurt,2929670,50.98333,11.03333,6.0
19,Magdeburg,2874545,52.166672,11.66667,6.12
20,Frankfurt am Main,2925533,50.116669,8.68333,6.94
21,Marburg an der Lahn,2873759,50.816669,8.76667,8.0
22,Kaiserslautern,2894003,49.450001,7.75,6.74
23,Koblenz,2886946,50.349998,7.6,5.78
24,Kassel,2892518,51.316669,9.5,7.31
25,Bonn,2946447,50.73333,7.1,6.98
26,Dusseldorf,2934246,51.221722,6.776160000000001,8.0
27,Meppen,2871845,52.690639000000004,7.29097,8.3
28,Berlin,2950159,52.524368,13.41053,7.49
29,Dortmund,2935517,51.51667,7.45,8.0
30,Muenster,2867543,51.96236,7.625710000000001,8.0
31,Bielefeld,2949186,52.033328999999995,8.53333,7.64
32,Hannover,2910831,52.370521999999994,9.73322,7.81
33,Bremen,2944387,53.083328,8.83333,8.0
34,Hamburg,2911298,53.549999,10.0,7.5
35,Kiel,2891122,54.32133100000001,10.134889999999999,7.0
36,Rostock,2844588,54.088699,12.14049,7.0
37,Aachen,3247449,50.776641999999995,6.083419999999999,8.0
38,Fulda,2923822,50.55162,9.675180000000001,8.0
39,Tor,359678,28.23638,33.625401000000004,11.44
40,Suez,359796,29.973709000000003,32.526272,9.75
41,Cairo,360630,30.06263,31.249670000000002,15.0
42,Khan Yunis,281124,31.340179,34.306271,9.32
43,Port Said,358619,31.25654,32.284119,15.0
44,Alexandria,361058,31.215639000000003,29.955271000000003,13.33
45,Marsa Matruh,352733,31.352539,27.245278999999996,12.0
46,Remada,2467783,32.31662,10.39551,14.0
47,Tataouine,2464701,32.929668,10.45177,14.0
48,Mellita,2469329,33.863178000000005,10.80154,11.35
49,Kebili,2468018,33.704390999999994,8.96903,8.7
50,Sfax,2467454,34.740559000000005,10.76028,12.0
51,Sidi Bouzid,2465840,35.038231,9.48494,5.9
52,Mahdia,2473572,35.504719,11.06222,13.0
53,Thala,2464795,35.572441,8.67031,9.0
54,El Kef,2473634,36.174240000000005,8.70486,11.0
55,Enfida,2473358,36.135281,10.38083,12.42
56,Beja,2472774,36.725639,9.18169,9.53
57,Adrar,2508813,27.874290000000002,-0.29388000000000003,20.0
58,Timimoun,2476403,29.26388,0.23098000000000002,17.0
59,El Golea,2498305,30.566669,2.88333,16.0
60,Hassi Messaoud,2494029,31.68041,6.0728599999999995,15.35
61,Bechar,2505530,31.616671000000004,-2.21667,17.0
62,Ghardaïa,2496049,32.49094,3.6734699999999996,18.0
63,Ain Sefra,2507943,32.75,-0.58333,4.35
64,El Oued,2497411,33.356079,6.8631899999999995,15.0
65,El Bayadh,2498543,33.683182,1.0192700000000001,3.47
66,Mecheria,2489865,33.544529,-0.28117,12.0
67,Laghouat,2491191,33.799999,2.8651400000000002,8.07
68,Djelfa,2500017,34.672791,3.263,4.5
69,Biskra,2503826,34.85038,5.72805,16.0
70,Maghnia,2490584,34.849689,-1.72753,11.09
71,Sidi Bel Abbes,2481007,35.189941,-0.63085,13.0
72,Bou Saâda,2502385,35.208549,4.17402,6.72
73,Ksar Chellala,2491335,35.212219,2.31889,6.57
74,Relizane,2483668,35.737339,0.55599,7.47
75,Oran,2485926,35.691109000000004,-0.64167,13.0
76,Khenchela,2491889,35.435829,7.143330000000001,-0.68
77,Setif,2481700,36.19112,5.41373,9.77
78,Algiers,2507480,36.752499,3.04197,12.0
79,Constantine,2501152,36.365002000000004,6.614719999999999,9.0
80,Bouira,2502958,36.374889,3.9019999999999997,5.9
81,Ténès,2477148,36.510760999999995,1.30809,15.0
82,Bejaia,2505329,36.755871,5.0843300000000005,9.2
83,Annaba,2506999,36.900002,7.7666699999999995,12.0
84,Ceuta,2519582,35.890282,-5.3075,12.11
85,Errachidia,2549340,31.75,-4.5,17.0
86,Midelt,2542227,32.6852,-4.74512,-0.05
87,Beni-Mellal,2555742,32.5,-6.33333,14.0
88,Nouaceur,6547299,33.458389000000004,-7.64726,12.6
89,Casablanca,2553604,33.592781,-7.619160000000001,12.61
90,Meknes,2542715,33.89352,-5.54727,12.49
91,Rabat,2538474,33.991112,-6.84006,10.61
92,Taza,2529313,34.25,-3.75,6.37
93,Al Hoceima,2558545,35.243328000000005,-3.9309199999999995,14.0
94,Chefchaouene,2553455,35.168781,-5.2636,12.0
95,Tabuk,101628,28.383328999999996,36.583328,13.0
96,Al Qurayyat,108648,31.33176,37.342819,11.0
97,Aqaba,250774,29.526670000000003,35.007778,16.59
98,At Tafilah,250198,30.837521000000002,35.604420000000005,6.1
99,Amman,250441,31.955219,35.945029999999996,8.0
100,Irbid,248944,32.5,35.833328,8.0
101,Tel Aviv,293397,32.080878999999996,34.780571,12.98
102,Haifa,294801,32.815559,34.98917,14.0
103,Tripoli,266826,34.436668,35.84972,5.1
104,Beirut,276781,33.888939,35.494419,14.0
105,Damascus,170654,33.510201,36.291278999999996,7.0
106,Hamah,170017,35.13179,36.757832,5.32
107,Latakia,173576,35.514839,35.77684,12.0
108,Al Hasakah,173811,36.502369,40.747719000000004,7.85
109,Yerevan,616051,40.183331,44.5,3.0
110,Gyumri,616635,40.794201,43.845279999999995,-4.77
111,Tbilisi,611717,41.694111,44.833679,3.0
112,Batumi,615532,41.64159,41.635929,9.0
113,Zestaponi,610864,42.110001000000004,43.052502000000004,9.0
114,Zugdidi,610824,42.508801,41.87088,9.0
115,Gudermes,558118,43.356941,46.105282,0.0
116,Vladikavkaz,473249,43.036671000000005,44.667782,-1.88
117,Nalchik,523523,43.498058,43.618889,-1.0
118,Teberda,483873,43.445648,41.744801,-4.5
119,Adler,584243,43.43,39.919998,9.0
120,Kizlyar,547840,43.846939,46.715,-0.15
121,Budennovsk,571306,44.78389,44.165828999999995,-1.85
122,Nevinnomyssk,522377,44.626667,41.945278,-2.0
123,Maykop,528293,44.60778,40.105831,3.2
124,Anapa,582182,44.890839,37.323898,4.0
125,Dzhangala,609965,49.216671000000005,50.333328,-16.53
126,Oral,608668,51.233334,51.366669,-8.0
127,Sorochinsk,490554,52.4338,53.158297999999995,-10.5
128,Svetlograd,485698,45.335281,42.854721000000005,-2.0
129,Astrakhan,580497,46.349682,48.04076,-4.0
130,Iki-Burul,557413,45.820831,44.647221,-3.0
131,Yashkul,468747,46.171101,45.343498,-3.75
132,Tikhoretsk,483029,45.854721000000005,40.125278,0.22
133,Primorsko-Akhtarsk,505259,46.049702,38.174702,0.15
134,Yusta,466135,47.121101,46.301601,-8.15
135,Remontnoye,502185,46.561401000000004,43.650101,-3.0
136,Zimovniki,462522,47.148334999999996,42.463333,-5.35
137,Gigant,561499,56.44389,41.296112,-4.0
138,Yeysk,466885,46.698890999999996,38.279167,-0.93
139,Taganrog,484907,47.236171999999996,38.896881,-2.63
140,Malyye Derbety,530196,47.95472,44.680828000000005,-8.55
141,Kotelnikovo,543728,47.631668,43.146111,-6.75
142,Konstantinovsk,545277,47.582778999999995,41.092220000000005,-2.35
143,Zaporizhzhya,687700,47.816669,35.183331,-1.0
144,Verkhniy Baskunchak,475196,48.225639,46.721699,-10.88
145,Volgograd,472757,48.719390999999995,44.501839000000004,-8.0
146,Dnipropetrovsk,709930,48.450001,34.98333,-1.0
147,Bokovskaya,575413,49.228989,41.830601,-6.13
148,Millerovo,526558,48.922649,40.396729,-5.8
149,Izyum,707292,49.208752000000004,37.248482,-4.95
150,Novouzensk,517739,50.459171000000005,48.143059,-10.55
151,Pallasovka,513042,50.049999,46.883331,-10.95
152,Frolovo,562389,49.771332,43.66222,-8.45
153,Boguchar,575457,49.935767999999996,40.544998,-6.43
154,Valuyki,477192,50.203499,38.106701,-7.15
155,Kharkiv,706483,50.0,36.25,-4.0
156,Krasnyy Kut,541647,50.950001,46.966671000000005,-12.78
157,Danilovka,567167,52.765556000000004,46.15889,-8.2
158,Rudnya,500664,55.549999,39.133331,-1.0
159,Kalach,554410,50.4258,41.0261,-7.13
160,Uryupinsk,478544,50.804699,42.013802,-7.25
161,Anna,581671,51.4842,40.429901,-7.53
162,Liski,534838,50.984051,39.51545,-7.28
163,Belgorod,578072,50.610001000000004,36.580002,-5.0
164,Yershov,467120,51.351299,48.2766,-13.7
165,Balashov,579460,51.550201,43.166698,-7.53
166,Pugachev,504250,52.013332,48.802502000000004,-11.35
167,Karabulak,552951,43.303612,44.896389,0.0
168,Rtishchevo,500886,52.26041,43.787449,-7.68
169,Zherdevka,463217,51.84861,41.46056,-7.18
170,Livny,534701,52.425339,37.606891999999995,-7.0
171,Sevastopol,694423,44.599998,33.533333,5.6
172,Chornomorske,710687,45.503887,32.699721999999994,2.35
173,Kherson,706448,46.655811,32.617802000000005,0.0
174,Tiraspol,617239,46.840278999999995,29.64333,-1.0
175,Chisinau,618426,47.005562,28.8575,-1.0
176,Odessa,698740,46.477474,30.732621999999996,0.0
177,Balti,618605,47.761669,27.928890000000003,-3.0
178,Kryvyy Rih,703845,47.916668,33.349998,-1.0
179,Lyubashivka,702898,47.837158,30.259759999999996,-8.4
180,Mohyliv-Podilskyy,700918,48.44598,27.798201000000002,-6.88
181,Chernivtsi,710719,48.291489,25.94034,-4.0
182,Uzhhorod,690548,48.616669,22.299999,-1.3
183,Svitlovodsk,692087,49.048939000000004,33.241058,-3.9
184,Uman,690688,48.748379,30.221840000000004,-11.75
185,Vinnytsya,689558,49.23278,28.480970000000003,-4.0
186,Ivano-Frankivsk,707471,48.921501,24.709721,-3.0
187,Poltava,696643,49.593731,34.540729999999996,-5.7
188,Myronivka,701031,49.660069,30.98225,-12.3
189,Khmelnytskyy,706369,49.421611999999996,26.996531,-9.15
190,Ternopil,691650,49.555889,25.60556,-3.6
191,Lviv,702550,49.838260999999996,24.023239,0.0
192,Lubny,702723,50.016251000000004,32.996941,-8.8
193,Boryspil,711660,50.349998,30.950001,-3.0
194,Zhytomyr,686967,50.26487,28.676689,-8.43
195,Shepetivka,694216,50.185452000000005,27.06365,-3.85
196,Sumy,692194,50.9216,34.800289,-7.28
197,Konotop,705135,51.240318,33.202628999999995,-8.28
198,Volodymyr-Volynskyy,689378,50.852531,24.323641000000002,1.75
199,Chernihiv,710735,51.505508,31.284879999999998,-8.28
200,Sarny,694792,51.337952,26.601909999999997,-0.35
201,Homyel,627907,52.434502,30.975401,-4.0
202,Mazyr,625324,52.0495,29.2456,-6.15
203,Pinsk,623549,52.122898,26.0951,0.15
204,Brest,629634,52.099998,23.700001,2.32
205,Samara,499099,53.200001,50.150002,-8.0
206,Sterlitamak,487495,53.624618999999996,55.95015,-8.0
207,Buguruslan,571159,53.655398999999996,52.442001,-7.95
208,Ufa,479561,54.775002,56.037498,-6.0
209,Aksakovo,583688,56.066666000000005,42.450001,-5.6
210,Bugulma,571170,54.549999,52.799999,-6.85
211,Chelno-Vershiny,569497,54.433331,51.099998,-6.4
212,Askino,580577,56.09013,56.57830799999999,-7.25
213,Vyatskiye Polyany,470734,56.226020999999996,51.065571000000006,-4.2
214,Yekaterinburg,1486209,56.857498,60.612499,-14.0
215,Krasnoufimsk,542199,56.60585,57.766861,-7.35
216,Sarapul,498687,56.476330000000004,53.797821,-4.88
217,Okhansk,516073,57.718552,55.38771800000001,-6.0
218,Nizhniy Tagil,520494,57.919441000000006,59.965,-12.35
219,Glazov,561347,58.139407999999996,52.658421,-5.05
220,Verkhoturye,1487219,58.862708999999995,60.805358999999996,-14.0
221,Kudymkar,539817,59.017288,54.655998,-6.0
222,Gari,1506676,59.43074,62.349669999999996,-16.78
223,Kirs,548333,59.338820999999996,52.244671000000004,-4.65
224,Syzran,484972,53.158501,48.468102,-7.05
225,Radishchevo,503254,52.849998,47.883331,-8.68
226,Tambov,484646,52.731669999999994,41.433890999999996,-7.05
227,Lipetsk,535121,52.603111,39.570759,-8.65
228,Yefremov,468390,53.14806,38.099239000000004,-8.78
229,Orel,515012,52.96583199999999,36.080276,-9.13
230,Inza,556283,53.853333,46.358612,-7.05
231,Ryazhsk,500047,53.7038,40.110901,-7.75
232,Uzlovaya,477494,53.981789,38.171181,-8.93
233,Dimitrovgrad,566199,54.21386,49.618378,-7.0
234,Surskoye,486043,54.482101,46.721401,-6.3
235,Krasnoslobodsk,542212,54.425301,43.789631,-6.85
236,Sasovo,461699,54.353691000000005,41.919861,-7.25
237,Ryazan,500096,54.619719999999994,39.740002000000004,-7.75
238,Sukhinichi,486665,54.099892000000004,35.342541,-6.55
239,Kaluga,553915,54.529301000000004,36.275421,-3.0
240,Lukoyanov,533400,55.027721,44.478649,-5.95
241,Vyksa,470444,55.317501,42.174438,-6.43
242,Kashira,551964,54.844440000000006,38.166939,-2.0
243,Moscow,524901,55.752219999999994,37.615555,-1.8
244,Naro-Fominsk,523426,55.387519999999995,36.73307,-2.0
245,Kazan,551487,55.788738,49.122139000000004,-5.0
246,Sergach,496802,55.530788,45.46611,-5.15
247,Vladimir,2013364,53.471401,102.654701,-40.18
248,Gagarin,562237,55.55291,34.995369000000004,-3.43
249,Kozmodemyansk,543018,56.336666,46.57111,-5.0
250,Nizhniy Novgorod,520555,56.328674,44.002047999999995,-4.0
251,Tver,480060,56.861938,35.893059,-2.45
252,Nolinsk,520041,57.559619999999995,49.936291,-4.18
253,Krasnyye Baki,541796,57.131001,45.15992,-3.55
254,Yuryevets,466258,57.320068000000006,43.104099,-2.55
255,Ivanovo,555312,56.994167000000004,40.985832,-3.45
256,Kostroma,543878,57.77083199999999,40.934444,-2.0
257,Uglich,479532,57.5275,38.331669,-2.05
258,Kotelnich,543737,58.308899,48.348,-3.1
259,Buy,570508,58.478611,41.529999,-1.93
260,Rybinsk,500004,58.044601,38.84259,-1.65
261,Maksatikha,531979,57.796951,35.882542,-1.63
262,Kirov,548408,58.596649,49.660069,-3.4
263,Vokhma,472887,58.930302000000005,46.758590999999996,-2.1
264,Kologriv,546282,58.82748,44.317768,-1.65
265,Cherepovets,569223,59.133331000000005,37.900002,0.0
266,Oparino,515175,59.851791000000006,48.278259000000006,-1.75
267,Totma,481960,59.974724,42.764168,-0.93
268,Babayevo,580006,59.3936,35.937098999999996,0.55
269,Trubchevsk,481350,52.5798,33.7644,-6.68
270,Krasnaya Gora,542788,52.9995,31.602301,-4.0
271,Babruysk,630468,53.150002,29.233334000000003,-1.4
272,Slutsk,621741,53.027401,27.5597,-2.03
273,Baranavichy,630429,53.132702,26.013901,1.55
274,Bryansk,2026070,52.02306,106.84333000000001,-32.0
275,Roslavl,501283,53.95278199999999,32.863892,-5.25
276,Mahilyow,625665,53.91389100000001,30.33639,-2.85
277,Marina Horka,625409,53.508998999999996,28.146998999999997,-1.0
278,Minsk,625144,53.900002,27.566668,-1.0
279,Lida,626081,53.883331000000005,25.299720999999998,2.55
280,Smolensk,491687,54.781666,32.040001000000004,-3.9
281,Orsha,624079,54.515278,30.405277,-2.28
282,Vilnius,593116,54.689159,25.2798,2.0
283,Kaliningrad,554234,54.70649,20.51095,3.0
284,Dokshytsy,629002,54.892421999999996,27.76894,0.12
285,Utena,593672,55.5,25.6,1.95
286,Belyy,577576,55.840199,32.941897999999995,-3.45
287,Birzai,600438,56.200001,24.75,2.22
288,Silale,594693,55.490559,22.181391,3.7
289,Velikiye Luki,476077,56.34,30.545170000000002,-1.1
290,Opochka,515155,56.710480000000004,28.661739,0.45
291,Madona,457714,56.853291000000006,26.21698,1.4
292,Riga,456172,56.950001,24.1,1.0
293,Liepaja,457954,56.51667,21.01667,4.0
294,Ostashkov,514259,57.146671,33.107529,-2.35
295,Kholm,549786,59.26667,32.849998,1.05
296,Ventspils,454310,57.389439,21.56056,1.0
297,Bologoye,575349,57.879902,34.1068,-1.88
298,Staraya Russa,489088,57.994389,31.360809000000003,0.07
299,Pskov,504341,57.813598999999996,28.3496,2.0
300,Valga,587876,57.777809,26.0473,3.0
301,Kuressaare,590939,58.24805799999999,22.503889,0.0
302,Gdov,561679,58.740559,27.81222,0.9
303,Parnu,589580,58.38588000000001,24.49711,0.85
304,Tikhvin,483019,59.645111,33.529369,0.82
305,Lyuban,532637,59.349998,31.216669,0.85
306,Kingisepp,548602,59.37331,28.613429999999997,1.0
307,Tartu,588335,58.380618999999996,26.72509,3.0
308,Khanty-Mansiysk,1503772,61.004169,69.001938,-28.0
309,Ivdel,1505260,60.691109,60.420559,-19.15
310,Cherdyn,569359,60.40295,56.478680000000004,-9.8
311,Gayny,561698,60.307072,54.32411999999999,-7.95
312,Syktyvkar,485239,61.676418000000005,50.809940000000005,-3.0
313,Ust-Kulom,478050,61.686358999999996,53.690201,-6.4
314,Nizhnesortymskiy,7287775,62.439651,71.760292,-22.78
315,Sosva,1491267,59.17661999999999,61.855789,-16.63
316,Ukhta,479411,63.567051,53.683479000000005,-6.53
317,Izhma,554830,65.00833100000001,53.91128199999999,-8.1
318,Muzhi,1498161,65.36666899999999,64.66667199999999,-21.13
319,Pechora,511794,65.147163,57.224388,-11.88
320,Vorkuta,1486910,67.5,64.0,-26.13
321,Naryan-Mar,523392,67.671257,53.086971,-11.0
322,Konosha,545353,60.973597999999996,40.257,-1.0
323,Nyuksenitsa,516539,60.412777,44.239723,-0.7
324,Vozhega,471245,60.472462,40.221340000000005,-0.93
325,Belozersk,577711,60.032631,37.795719,-1.3
326,Vyborg,470546,60.70763,28.752831,1.0
327,Krasnoborsk,542423,61.55978,45.93396,0.15
328,Velsk,475938,61.070060999999995,42.098301,-0.93
329,Nyandoma,516647,61.669029,40.19907,-0.28
330,Pudozh,504269,61.809879,36.534538,0.45
331,Petrozavodsk,509820,61.784912,34.346909000000004,1.0
332,Shenkursk,494884,62.1091,42.89595,-2.15
333,Bereznik,577240,62.855141,42.707190999999995,-0.88
334,Medvezhyegorsk,527888,62.91666800000001,34.466667,0.75
335,Koslan,544084,63.456421,48.898911,-1.68
336,Sura,486163,53.887859,45.74192,-7.35
337,Segezha,497927,63.74146999999999,34.322182,-0.45
338,Porosozero,506232,62.71912,32.727032,0.82
339,Pinega,509483,64.700142,43.39362,-0.45
340,Kholmogory,549748,64.2229,41.655998,1.0
341,Rabocheostrovsk,798536,64.985474,34.766109,-4.25
342,Kalevala,554318,65.199997,31.166667999999998,-3.85
343,Umba,479071,66.687057,34.342918,-7.18
344,Murmansk,524305,68.97917199999999,33.09251,-11.0
345,Nikel,522260,69.412849,30.221978999999997,-21.0
346,Larnaca,146400,34.916672,33.629169,10.65
347,Paphos,146214,34.76667,32.416672,12.39
348,Rizokarpaso,146105,35.599998,34.375,11.22
349,Lefka,146392,35.110561,32.850559000000004,11.56
350,Kas,308948,36.201759,29.637659000000003,13.62
351,Iskenderun,311111,36.587181,36.17347,9.0
352,Osmaniye,303195,37.074169,36.24778,7.95
353,Silifke,300808,36.377781,33.934441,7.5
354,Alanya,324190,36.543751,31.999821,10.0
355,Antalya,323776,36.77409,30.71777,9.0
356,Marmaris,304782,36.855,28.27417,10.97
357,Batman,321836,37.887378999999996,41.13221,5.0
358,Gaziantep,314829,37.083328,37.333328,7.0
359,Denizli,317106,37.84016,29.06982,4.0
360,Nigde,303827,37.965832,34.679352,-1.05
361,Eregli,315498,37.513329,34.046719,0.72
362,Konya,306569,38.166672,32.5,4.0
363,Aksehir,324490,38.357498,31.416389000000002,1.87
364,Aydin,322830,37.845009000000005,27.83963,9.0
365,Bitlis,321022,38.5,42.25,-0.55
366,Bingol,321082,38.88472,40.493889,-4.9
367,Elazig,315808,38.674309,39.223209000000004,3.0
368,Malatya,304919,38.5,38.0,4.0
369,Kayseri,308463,38.73695,35.496829999999996,5.0
370,Cihanbeyli,318506,38.660721,32.92437,-0.43
371,Akhisar,324698,38.918521999999996,27.840059000000004,1.0
372,Ayvalik,322673,39.31905,26.6954,7.84
373,Van,298113,38.5,43.5,1.0
374,Kirsehir,307515,39.145828,34.163891,4.0
375,Kutahya,305268,39.424171,29.98333,3.0
376,Balikesir,322165,39.64917,27.88611,6.0
377,Yozgat,296560,39.583328,35.333328,-0.53
378,Kirikkale,307654,39.845279999999995,33.50639,5.21
379,Yalova,738025,40.655021999999995,29.27693,4.77
380,Bursa,750268,40.166672,29.08333,5.0
381,Bandirma,751077,40.352219,27.976669,5.0
382,Canakkale,749780,40.145561,26.406389,2.0
383,Agri,309647,39.719440000000006,43.051392,-11.43
384,Kars,743942,40.416672,43.083328,-7.0
385,Erzurum,315367,40.0,41.5,-3.0
386,Erzincan,315372,39.75,39.5,1.0
387,Sivas,300617,39.791649,37.001948999999996,-1.0
388,Amasya,752014,40.666672,35.833328,5.0
389,Korgun,742657,40.734798,33.518440000000005,-3.6
390,Karabük,862468,41.25,32.5,1.5
391,Duzce,747764,40.83889,31.163890999999996,1.15
392,Belek,321580,36.862782,31.055559000000002,9.0
393,Tekirdag,738927,40.978008,27.50852,1.0
394,Kirklareli,743166,41.735081,27.225209999999997,-5.68
395,Trabzon,738647,40.916672,39.833328,8.0
396,Giresun,746878,40.5,38.5,8.0
397,Carsamba,749704,41.198890999999996,36.721939,7.0
398,Sinop,739598,41.771060999999996,34.870948999999996,4.97
399,Ermoupolis,262603,37.442268,24.94248,10.0
400,Karpathos,260895,35.507011,27.213221,12.0
401,Kissamos,259718,35.493889,23.65694,8.78
402,Souda,253456,35.48444,24.07444,8.78
403,Milos,256952,36.75,24.433331,10.0
404,Methoni,257122,36.819728999999995,21.704860999999998,7.0
405,Zakynthos,251280,37.791389,20.895281,7.62
406,Athens,264371,37.97945,23.716221,4.43
407,Tripoli,252601,37.508888,22.37944,7.0
408,Chios,259970,38.416672,26.0,10.35
409,Skyros,253614,38.904171000000005,24.563060999999998,9.75
410,Lamia,258620,38.900002,22.433331,5.0
411,Myrina,256930,39.879719,25.074169,3.0
412,Larisa,258576,39.637218,22.420279999999998,5.0
413,Preveza,254698,38.950001,20.75,11.0
414,Ioannina,261779,39.6675,20.85083,1.87
415,Alexandroupoli,736928,40.8475,25.874439000000002,2.0
416,Chrysoupolis,735747,40.985561,24.69389,5.0
417,Thessaloniki,734077,40.640282,22.94389,4.0
418,Kastoria,735927,40.51667,21.26667,-2.5
419,Luqa,2562788,35.858891,14.488610000000001,9.0
420,Cagliari,2525473,39.207378000000006,9.13462,11.42
421,Sassari,3167096,40.727219,8.56028,13.0
422,Olbia,3172087,40.921371,9.48563,9.0
423,Oristano,2523964,39.903061,8.59194,11.0
424,Lampedusa,2524459,35.5,12.6,13.0
425,Gela,2524653,37.080341,14.23068,6.0
426,Catania,2525068,37.502129,15.08719,9.87
427,Sciacca,2523194,37.506931,13.08399,12.0
428,Reggio Calabria,2523630,38.11047,15.66129,11.5
429,Palermo,2523920,38.115821999999994,13.359760000000001,10.0
430,Catanzaro,2525059,38.890789,16.5987,11.0
431,Lecce,3174953,40.357029,18.17202,8.01
432,Scalea,2523207,39.813,15.79558,11.32
433,Policoro,3170384,40.21151,16.67259,7.3
434,Napoli,3172394,40.833328,14.25,10.06
435,Caserta,3179866,41.083221,14.334929999999998,10.12
436,Ponza,3170189,40.893799,12.9625,13.0
437,Bari,3182351,41.117729,16.851179000000002,6.0
438,Vieste,3164387,41.88245,16.174959,10.12
439,Roma,3169070,41.894740999999996,12.4839,11.37
440,Pescara,3171168,42.460239,14.21021,7.0
441,Terni,3165771,42.567130999999996,12.64987,5.86
442,Grosseto,3175786,42.77142,11.10794,9.41
443,Ancona,3183089,43.59816,13.510079999999999,7.0
444,Arezzo,3182884,43.461391,11.87691,9.75
445,Pisa,3170647,43.71553,10.39659,8.0
446,San Marino,3168070,43.933331,12.45,5.58
447,Bologna,3181928,44.493809000000006,11.33875,7.0
448,Ferrara,3177090,44.826778000000004,11.62071,7.0
449,Genoa,6542282,44.412861,8.957289999999999,13.0
450,Trieste,3165185,45.648609,13.78,6.0
451,Venezia,3164603,45.43861,12.32667,6.21
452,Verona,3164527,45.434189,10.99779,6.27
453,Milano,3173435,45.464271999999994,9.18951,3.98
454,Torino,3165524,45.070492,7.68682,2.47
455,Aosta,3182997,45.737358,7.3166,5.0
456,Tarvisio,3165912,46.51083,13.594170000000002,0.0
457,Dobbiaco,3177571,46.7425,12.23139,-9.28
458,Trento,3165243,46.067871000000004,11.121080000000001,-0.72
459,Bolzano,3181913,46.492722,11.33358,-1.2
460,Kurdzhali,729794,41.650002,25.366671,1.0
461,Sandanski,727447,41.566669,23.283331,-2.93
462,Burgas,732770,42.506062,27.467809999999997,3.0
463,Sliven,727079,42.685829,26.32917,3.0
464,Varna,726050,43.216671000000005,27.91667,1.0
465,Razgrad,727696,43.533328999999995,26.51667,-4.55
466,Vidin,725905,43.990002000000004,22.872498999999998,-3.7
467,Mangalia,673921,43.799999,28.58333,-2.0
468,Turnu Magurele,664437,43.75,24.866671,1.0
469,Calarasi,673150,44.216671000000005,27.299999,-2.13
470,Videle,662976,44.278061,25.524441,0.99
471,Grivita,676706,46.150002,27.65,-6.7
472,Moldova Noua,672912,44.737499,21.666941,-3.0
473,Ploiesti,670474,44.950001,26.01667,1.02
474,Curtea de Arges,679907,45.133331,24.683331,-6.65
475,Targu Jiu,665010,45.049999,23.283331,-5.18
476,Resita,668954,45.300831,21.88917,-3.0
477,Ramnicu Sarat,668873,45.383331,27.049999,-7.53
478,Brasov,683844,45.648609,25.606131,-10.1
479,Sibiu,667268,45.799999,24.15,-2.0
480,Deva,679452,45.883331,22.9,-4.53
481,Arad,686254,46.183331,21.316669,-0.08
482,Targu Ocna,665002,46.283328999999995,26.616671000000004,0.0
483,Odorheiu Secuiesc,671964,46.299999,25.299999,-10.15
484,Baisoara,685773,46.583328,23.466669,-2.0
485,Holod,676070,46.783328999999995,22.133329,-1.0
486,Negresti,672375,46.833328,27.433331,-1.46
487,Bistrita,684657,47.13316,24.500110999999997,-10.38
488,Supuru de Jos,665758,47.466671000000005,22.799999,2.0
489,Suceava,665850,47.633331,26.25,-4.0
490,Sighetu Marmatiei,667227,47.933331,23.883329,-8.7
491,Neum,3194514,42.923328000000005,17.615561,8.0
492,Sarajevo,3191281,43.84864,18.35644,0.0
493,Tuzla,3188582,44.542782,18.669439,0.0
494,Banja Luka,3204541,44.775828999999995,17.18556,0.0
495,Split,3190261,43.508911,16.43915,6.0
496,Dubrovnik,3201047,42.648071,18.092159,6.35
497,Zadar,3186952,44.11972,15.242220000000001,5.0
498,Karlovac,3198259,45.487221000000005,15.54778,0.5
499,Rijeka,3191648,45.343059999999994,14.409170000000001,5.5
500,Pula,3192224,44.868328000000005,13.84806,5.58
501,Varazdin,3188383,46.30444,16.33778,1.48
502,Tirana,3183875,41.327498999999996,19.81889,5.0
503,Sarande,363243,39.875561,20.00528,10.0
504,Skopje,785842,42.0,21.433331,1.0
505,Prilep,786735,41.34639,21.55444,1.0
506,Vranje,784227,42.551392,21.90028,1.0
507,Podgorica,3193044,42.441109000000004,19.263610999999997,5.0
508,Cuprija,791678,43.927502000000004,21.370001000000002,0.0
509,Pozega,786824,43.84639,20.041389000000002,0.0
510,Belgrade,792680,44.804008,20.46513,0.98
511,Zrenjanin,783814,45.38361,20.381941,1.03
512,Sombor,3190342,45.77417,19.112220999999998,1.0
513,Budapest,3054643,47.498009,19.039908999999998,1.0
514,Pecs,3046526,46.083328,18.23333,-4.85
515,Szeged,715429,46.252998,20.148239,0.0
516,Eger,721239,47.902649,20.373289,-6.63
517,Debrecen,721472,47.533328999999995,21.633329,-1.0
518,Sopron,3045190,47.685009,16.59049,2.0
519,Szolnok,715126,47.183331,20.200001,-1.0
520,Lesko,766452,49.4701,22.33042,-0.85
521,Nowy Sacz,763534,49.621769,20.69705,-1.0
522,Bielsko-Biala,3103402,49.822449,19.046860000000002,2.51
523,Sandomierz,7532761,50.679501,21.747,3.0
524,Czestochowa,3100946,50.796459000000006,19.12409,3.0
525,Klodzko,3096053,50.434878999999995,16.661448999999998,2.85
526,Wlodawa,755474,51.549999,23.549999,2.0
527,Kozienice,7533191,51.585999,21.536501,3.35
528,Lodz,3093133,51.75,19.466669,3.0
529,Wroclaw,3081368,51.099998,17.033331,6.0
530,Leszno,3093524,51.840340000000005,16.574939999999998,6.0
531,Warszawa,6695624,52.23547,21.04191,4.47
532,Poznan,3088171,52.406921000000004,16.92993,6.0
533,Gorzow Wielkopolski,3098722,52.73679,15.228779999999999,5.15
534,Bialystok,776069,53.133331000000005,23.15,3.47
535,Ostroleka,762909,53.086208,21.575661,3.0
536,Mikolajki,764777,53.802879000000004,21.57011,3.0
537,Torun,3083271,53.013748,18.598141000000002,4.0
538,Chojnice,3101672,53.695541000000006,17.557011,4.7
539,Resko,3087195,53.773070999999995,15.406070000000001,7.0
540,Gdansk,3099434,54.352051,18.64637,4.0
541,Ustka,3082756,54.580479000000004,16.86194,5.15
542,Poprad,723846,49.061440000000005,20.297979,-1.0
543,Zvolen,3056459,48.574421,19.15324,1.0
544,Zilina,3056508,49.223147999999995,18.73941,2.58
545,Bratislava,3060972,48.148159,17.106741,1.56
546,Trnava,3057124,48.377399,17.587231,1.99
547,Ostrava,3068799,49.834648,18.28204,3.0
548,Brno,3078610,49.195221000000004,16.607960000000002,2.0
549,Liberec,3071961,50.767109000000005,15.056189999999999,1.9
550,Prague,3067696,50.088039,14.420760000000001,5.56
551,Ceske Budejovice,3077916,48.974468,14.47434,1.55
552,Sankt Polten,2766429,48.200001,15.633329999999999,8.0
553,Vienna,2761369,48.208488,16.37208,3.8
554,Graz,2778067,47.066669,15.45,0.57
555,Schwerin,2834282,53.629372,11.413160000000001,7.0
556,Andorra la Vella,3041563,42.50779,1.52109,-3.43
557,Lisbon,2267057,38.716671000000005,-9.13333,13.0
558,Braganca,2742027,41.805820000000004,-6.75719,5.55
559,Portalegre,2264508,39.293789000000004,-7.43122,10.0
560,Castelo Branco,2269514,39.822189,-7.49087,5.85
561,Manteigas,2737936,40.402802,-7.53977,5.97
562,Vila Real,2732438,41.300621,-7.74413,7.8
563,Beja,2270985,38.01506,-7.863230000000001,12.0
564,Faro,2268339,37.019371,-7.932230000000001,13.0
565,Porto,2735943,41.149609000000005,-8.61099,13.58
566,Monte Real,2265844,39.8521,-8.863489999999999,14.0
567,Almeria,2521886,36.838139,-2.45974,13.0
568,Torrox,2510245,36.757931,-3.9523300000000003,10.5
569,Cádiz,6356927,36.500881,-6.26843,11.0
570,Ronda,2511730,36.742309999999996,-5.16709,12.47
571,Murcia,2513416,37.987041,-1.13004,12.53
572,Sevilla,2510911,37.382408,-5.97613,11.8
573,Jaen,2516395,37.76667,-3.7833300000000003,10.0
574,Badajoz,2521420,38.877891999999996,-6.970610000000001,10.0
575,Caceres,2520611,39.476490000000005,-6.372240000000001,8.35
576,Cordoba,2519240,37.883331,-4.7666699999999995,10.0
577,Ibiza,2516479,38.908829,1.43296,12.0
578,Palma de Mallorca,6533961,39.569511,2.64745,9.0
579,Albacete,2522258,38.98333,-1.85,8.0
580,Valencia,2509954,39.469749,-0.37739,9.0
581,Ciudad Real,2519402,38.98333,-3.93333,1.1
582,Toledo,2510409,39.858101,-4.02263,9.0
583,Madrid,3117735,40.4165,-3.70256,8.97
584,Cuenca,3124132,40.066669,-2.13333,-0.88
585,Salamanca,3111108,40.966671000000005,-5.65,7.0
586,Teruel,3108126,40.3456,-1.10646,7.13
587,Zamora,3104342,41.5,-5.75,7.0
588,Castello de la Plana,2519752,39.98333,-0.03333,9.0
589,Valladolid,3106672,41.655182,-4.72372,7.0
590,Tarragona,3108288,41.116669,1.25,7.0
591,Zaragoza,3104324,41.656059,-0.87734,8.62
592,Aranda de Duero,3129877,41.67041,-3.6892,3.07
593,Almaden,2521938,38.77541,-4.83156,1.37
594,Oropesa,2513069,39.917259,-5.17371,0.97
595,Leon,3118532,42.599998,-5.566669999999999,6.0
596,Vigo,3105971,43.5639,-6.628239999999999,13.0
597,A Coruna,3119841,43.371349,-8.396,10.89
598,Lugo,3117814,43.0,-7.566669999999999,10.0
599,Gijon,3121424,43.535728000000006,-5.661519999999999,13.0
600,Santander,3109718,43.464721999999995,-3.80444,15.0
601,Burgos,3127461,42.349998,-3.7,8.0
602,Bilbao,3128026,43.262710999999996,-2.92528,12.72
603,Logrono,3118150,42.466671000000005,-2.45,9.55
604,Pamplona,3114472,42.816872,-1.64323,10.69
605,Lleida,3118514,41.616669,0.6166699999999999,7.0
606,Girona,3121456,41.983109000000006,2.8249299999999997,8.0
607,Valladolid,3106672,41.655182,-4.72372,7.0
608,Barcelona,3128760,41.38879,2.15899,9.49
609,Manresa,3117533,41.724979,1.82656,9.57
610,Calamocha,3127059,40.919331,-1.2975,6.87
611,Carrion de los Condes,3126161,42.341301,-4.600709999999999,5.6
612,Soria,3108681,41.764010999999996,-2.46883,5.95
613,Peniscola,3113860,40.357399,0.40692,12.85
614,Segovia,3109256,40.950001,-4.11667,10.0
615,Xinzo de Limia,3121404,42.063499,-7.724589999999999,7.3
616,Guadalajara,3121070,40.633331,-3.16667,8.98
617,Fisterra,3122426,42.904919,-9.262889999999999,10.0
618,Siguenza,3108961,41.06892,-2.64308,2.25
619,Riopar,2511818,38.5,-2.45,-0.88
620,Huelva,2516548,37.258331,-6.950830000000001,10.65
621,Ponferrada,3113236,42.546638,-6.596189999999999,5.85
622,Perpignan,2987914,42.697639,2.89541,9.0
623,Foix,3018174,42.966671000000005,1.6,10.0
624,Narbonne,2990919,43.183331,3.0,9.02
625,Montpellier,2992166,43.61092,3.8772300000000004,8.0
626,Toulouse,2972315,43.604259000000006,1.44367,11.0
627,Pau,2988358,43.299999,-0.36667,8.99
628,Biarritz,3032797,43.480121999999994,-1.55558,12.97
629,Mont-de-Marsan,2992771,43.890221000000004,-0.49713,11.04
630,Bordeaux,3031582,44.840439,-0.5805,10.45
631,Auch,3036281,43.650002,0.58333,10.01
632,Agen,3038634,44.200001,0.6333300000000001,9.0
633,Bergerac,3033391,44.849998,0.48333000000000004,12.0
634,Cahors,3029213,44.4491,1.4366299999999999,7.47
635,Aurillac,3036016,44.916672,2.45,6.44
636,Rodez,2983154,44.352581,2.57338,6.56
637,Albi,3038261,43.929798,2.148,8.39
638,Mende,2994617,44.51667,3.5,-1.1
639,Millau,2993875,44.099998,3.08333,6.0
640,Le Puy-en-Velay,3002465,45.043659000000005,3.8852300000000004,11.0
641,Clermont-Ferrand,3024635,45.779659,3.08628,10.0
642,Limoges,2998286,45.831532,1.2578,8.0
643,Avignon,3035681,43.948341,4.80892,7.02
644,Marseille,2995469,43.296951,5.381069999999999,8.78
645,Nice,2990440,43.703129,7.2660800000000005,8.47
646,Gap,3016702,44.566669,6.08333,-5.3
647,Valence,2971053,44.933331,4.9,5.0
648,Grenoble,3014728,45.166672,5.71667,7.08
649,Lyon,2996944,45.748459000000004,4.84671,8.96
650,Angouleme,3037598,45.650002,0.15,10.0
651,Royan,2982343,45.62846,-1.0281,10.0
652,La Rochelle,3006787,46.166672,-1.15,10.0
653,Poitiers,2986495,46.583328,0.33333,10.0
654,La Roche-sur-Yon,3006767,46.666672,-1.43333,10.35
655,Saint-Nazaire,2977921,47.283328999999995,-2.2,10.34
656,Nantes,2990969,47.217251,-1.55336,10.31
657,Angers,3037656,47.466671000000005,-0.55,8.45
658,Tours,2972191,47.383331,0.68333,10.0
659,Chateauroux,3026204,46.816669,1.7,11.0
660,Brive-la-Gaillarde,3029974,45.150002,1.5333299999999999,6.65
661,Montlucon,2992292,46.333328,2.6,8.35
662,Bourges,3031005,47.083328,2.4,10.69
663,Bourg-en-Bresse,3031009,46.205742,5.2258,10.0
664,Dijon,3021372,47.316669,5.0166699999999995,8.54
665,Besancon,3033123,47.248779,6.01815,6.26
666,Mulhouse,2991214,47.75,7.33333,5.24
667,Strasbourg,2973783,48.583420000000004,7.742960000000001,8.24
668,Metz,2994160,49.11911,6.17269,7.32
669,Basel,2661604,47.558399,7.57327,5.31
670,Zurich,2657896,47.366669,8.55,4.58
671,Vaduz,3042030,47.14151,9.52154,7.94
672,La Chaux-de-Fonds,2660076,47.09993,6.8258600000000005,4.0
673,Brussels,2800866,50.850449,4.3487800000000005,8.29
674,Amsterdam,2759794,52.374031,4.88969,8.3
675,Rotterdam,2747891,51.922501000000004,4.47917,9.0
676,Groningen,2755251,53.21917,6.566669999999999,7.31
677,Copenhagen,2618425,55.675941,12.56553,5.75
678,Odense,2615876,55.395939,10.38831,7.0
679,Arhus,2624652,56.156738,10.21076,6.51
680,Aalborg,2624886,57.048,9.9187,5.35
681,Esbjerg,2622447,55.466671,8.45,6.74
682,Horsens,2619771,55.860661,9.85034,6.51
683,Grenaa,2621230,56.415779,10.87825,7.0
684,Holstebro,2620046,56.360088,8.61607,6.0
685,Frederikshavn,2621927,57.44073100000001,10.536610000000001,5.85
686,Thisted,2611755,56.955231000000005,8.69491,6.22
687,Husavik,2629833,66.044891,-17.33885,-2.0
688,Siglufjordur,2627130,66.151337,-18.905120999999998,-2.0
689,Vestmannaeyjar,3412093,63.442730000000005,-20.27339,0.25
690,Reykjavik,3413829,64.135483,-21.895411,-1.0
691,Vopnafjörður,2625189,65.755501,-14.8252,-2.0
692,Isafjoerdur,3415667,66.07549300000001,-23.124001,-3.15
693,Bjarnanes,2632811,64.315399,-15.24182,1.85
694,County Limerick,2962941,52.5,-8.75,5.0
695,Sligo,2961422,54.25,-8.66667,3.0
696,Belmullet,2966208,54.224998,-9.99083,7.37
697,County Galway,2964179,53.333328,-9.0,3.0
698,Dublin,2964574,53.343990000000005,-6.26719,4.0
699,Dundalk,2964540,54.0,-6.41667,4.0
700,Kilkenny,2963397,52.583328,-7.25,6.0
701,Cork,2965140,51.897968,-8.47061,3.0
702,Portmagee,2962021,51.886108,-10.36167,5.0
703,Belfast,2655984,54.583328,-5.933330000000001,4.48
704,Douglas,2651073,55.549999,-3.85,5.66
705,Penzance,2640377,50.11861,-5.53715,7.0
706,Exeter,2649808,50.723597999999996,-3.52751,7.0
707,Plymouth,2640194,50.371528999999995,-4.14305,7.0
708,Bristol,2654675,51.455231,-2.59665,6.81
709,London,2643743,51.50853,-0.12574000000000002,8.0
710,Bournemouth,2655095,50.720482000000004,-1.8795,7.82
711,Ipswich,2646057,52.05917,1.15545,7.56
712,Peterborough,2640354,52.573639,-0.24777,6.77
713,Norwich,2641181,52.62783100000001,1.29834,7.26
714,Birmingham,2655603,52.481418999999995,-1.89983,5.71
715,Leicester,2644668,52.638599,-1.1316899999999999,6.02
716,Cardiff,2653822,51.48,-3.18,7.55
717,Swansea,2636432,51.620789,-3.9432300000000002,7.34
718,Milford Haven,2642534,51.71278,-5.0341,8.0
719,Holyhead,2646686,53.30621,-4.63211,7.0
720,Liverpool,2644210,53.41058,-2.9779400000000003,6.49
721,Manchester,2643123,53.480949,-2.23743,6.41
722,Stoke-on-Trent,2636841,53.00415,-2.18538,6.34
723,Sheffield,2638077,53.382968999999996,-1.4659,6.33
724,Hull,2645425,53.744597999999996,-0.33525,6.29
725,Leeds,2644688,53.796478,-1.54785,6.0
726,Carlisle,2653775,54.8951,-2.9382,4.0
727,Newcastle upon Tyne,2641673,54.973282,-1.61396,5.48
728,Middlesbrough,2642607,54.576229000000005,-1.2348299999999999,5.99
729,Glasgow,2648579,55.86515,-4.257630000000001,5.68
730,Edinburgh,2650225,55.952061,-3.1964799999999998,5.0
731,Aberdeen,2657832,57.143688,-2.0981400000000003,5.0
732,Inverness,2646088,57.47908,-4.22398,6.1
733,Wick,2633982,58.433331,-3.08333,6.0
734,Stornoway,2636790,58.209251,-6.38649,6.0
735,Torshavn,2611396,62.009731,-6.77164,4.0
736,Brae,2654970,60.396351,-1.35296,6.0
737,Daliburgh,2651589,57.166672,-7.4,6.0
738,Helsinki,658224,60.607780000000005,21.438101,2.0
739,Mariehamn,3041732,60.09726,19.934811,2.0
740,Hanko,659101,59.833328,22.950001,0.8
741,Kökar,651989,59.916672,21.0,2.0
742,Turku,633679,60.45148100000001,22.26869,2.0
743,Lahti,649360,60.98267,25.66151,1.0
744,Kuopio,650224,62.89238,27.677031,1.0
745,Pori,640999,61.48333,21.783331,2.0
746,Savonlinna,637292,61.8699,28.879990000000003,1.0
747,Jämsä,656084,61.833328,25.25,0.44
748,Ilomantsi,656709,62.67161899999999,30.93276,0.0
749,Kaskinen,653758,62.384441,21.22331,0.6
750,Multia,645710,62.416672,24.783331,0.52
751,Jakobstad,656130,63.67485799999999,22.702560000000002,0.0
752,Vaasa,632978,63.096001,21.61577,1.0
753,Kalajoki,654837,64.25,23.950001,1.25
754,Kajaani,654899,64.22728000000001,27.72846,1.0
755,Utsjoki,633268,69.908638,27.028431,-27.18
756,Suomussalmi,635696,64.886848,28.90778,-0.65
757,Kittila,652590,67.66667199999999,24.9,-15.0
758,Ranua,639888,65.91667199999999,26.533331,-5.1
759,Oulu,643492,65.01236,25.468161,-1.0
760,Kuusamo,649924,65.966667,29.183331,-4.0
761,Inari,656657,68.90596,27.028810999999997,-13.0
762,Salla,638074,66.83332800000001,28.66667,-8.78
763,Pello,642367,66.783333,23.91667,-20.0
764,Kautokeino,779327,69.011513,23.04151,-16.93
765,Kalmar,2702261,56.661572,16.361629,5.0
766,Kristianstad,2699310,56.031288,14.152420000000001,6.0
767,Ljungby,2694560,56.833241,13.94082,3.0
768,Visby,2662689,57.640888000000004,18.296021,4.0
769,Norrkoping,2688368,58.594189,16.1826,3.0
770,Hultsfred,2704398,57.488152,15.843570000000001,2.72
771,Sala,2680662,59.91993000000001,16.60655,2.0
772,Stockholm,2673730,59.332581000000005,18.064899,2.31
773,Karlskoga,2701715,59.326671999999995,14.52386,3.0
774,Mora,2691400,61.007038,14.54316,2.0
775,Bengtsfors,2723079,59.029120999999996,12.23207,4.05
776,Arjaeng,2725379,59.39216999999999,12.13336,3.0
777,Hudiksvall,2704613,61.72897,17.103579999999997,-0.0
778,Ostersund,2685750,63.179199,14.635660000000001,-1.0
779,Skelleftea,602913,64.750671,20.952789000000003,-10.0
780,Umea,602150,63.828419,20.25972,-4.0
781,Lycksele,2693347,64.59536700000001,18.67351,-8.0
782,Hammarstrand,2708152,63.110409,16.353769,-6.88
783,Mala,2693152,65.185013,18.74243,-12.0
784,Arvidsjaur,2725136,65.59033199999999,19.166821,-12.61
785,Kiruna,605155,67.855721,20.22513,-15.0
786,Oslo,3143244,59.91273100000001,10.746089999999999,2.17
787,Porsgrunn,3142657,59.140541000000006,9.6561,3.39
788,Kristiansand,3149318,58.146708999999994,7.9956,5.0
789,Stavanger,3137115,58.970051,5.73332,5.46
790,Haugesund,3153623,59.41378,5.268,5.56
791,Innbygda,3133819,61.314838,12.263739999999999,-0.45
792,Flisa,7626328,60.609218999999996,12.01543,1.0
793,Ringebu,3141850,61.51667,10.16667,-7.38
794,Nesbyen,3144733,60.568089,9.102739999999999,-6.35
795,Bismo,7626332,61.883869,8.26914,-10.18
796,Ulvik,3133311,60.567188,6.918710000000001,-4.15
797,Forde,3156804,61.45217099999999,5.85717,3.0
798,Namsos,3145023,64.46624,11.49572,-5.95
799,Trondheim,3133880,63.430489,10.39506,0.05
800,Folldal,3156868,62.132462,9.9968,-13.3
801,Steinsdalen,7626377,64.29875200000001,10.512839999999999,-4.53
802,Sjoholt,3139557,62.483711,6.81062,3.0
803,Bergen,3161732,60.392990000000005,5.32415,2.0
804,Sortland,3137405,68.694939,15.416179999999999,-15.0
805,Bodo,3160881,67.279999,14.40501,-1.0
806,Vik,3131781,65.312538,12.16734,1.0
807,Arendal,3162955,58.46151,8.77253,5.0
808,Båtsfjord,780714,70.635063,29.721490999999997,-12.0
809,Honningsvag,779554,70.98209399999999,25.970369,-12.1
810,Alta,780946,69.976753,23.296341,-9.04
811,Hasvik,779641,70.591637,22.302719,-7.0
812,Tromso,3133895,69.648903,18.95508,-17.8
813,Skaland,3139431,69.44455699999999,17.298320999999998,-12.78
814,Olonkinbyen,7535941,70.922096,-8.7187,-4.05
815,Nancy,2990999,48.683331,6.2,7.79
816,Chaumont,3025892,48.116669,5.13333,9.0
817,Troyes,2971549,48.299999,4.08333,7.44
818,Auxerre,3035843,47.799999,3.56667,8.0
819,Reims,2984114,49.25,4.03333,7.45
820,Fira,252920,36.42107,25.430870000000002,11.0
821,Sharm ash Shaykh,349340,27.85183,34.304989,18.0
822,Braunschweig,2945024,52.26667,10.53333,7.67
823,Innsbruck,2775220,47.262661,11.39454,1.0
824,Linz,2772400,48.306389,14.28611,2.0
825,Salzburg,2766823,47.416672,13.25,5.0
826,Luxembourg,2960316,49.611671,6.13,5.31
827,Sofia,727011,42.69751,23.32415,-1.0
828,Stara Zagora,726848,42.432781,25.641939,3.0
829,Geneva,6458783,46.208038,6.12737,8.34
830,Sion,2658576,46.229079999999996,7.35942,5.0
831,Nicosia,146268,35.166672,33.366669,10.54
832,Plzen,3068160,49.747471000000004,13.37759,4.42
833,Tallinn,588409,59.436958,24.753531,2.35
834,Rakvere,589165,59.34639,26.355828999999996,1.07
835,Jyvaeskylae,655194,62.23333,25.73333,0.56
836,Rovaniemi,638936,66.5,25.716669,-9.0
837,Saint-Dizier,2980816,48.633331,4.95,7.87
838,Orleans,2989317,47.902889,1.90389,9.37
839,Chartres,3026467,48.44685,1.48925,9.0
840,Melun,2994651,48.533328999999995,2.66667,9.34
841,Paris,2968815,48.853401,2.3486,9.37
842,Evreux,3019265,49.024139,1.1508200000000002,9.36
843,Alencon,3038230,48.433331,0.08333,10.0
844,Caen,3029241,49.185848,-0.35912,9.0
845,Le Mans,3003603,48.0,0.2,9.43
846,Rennes,2983990,48.111979999999996,-1.67429,8.6
847,Lorient,2997577,47.75,-3.3666699999999996,10.66
848,Brest,3030300,48.400002,-4.4833300000000005,8.04
849,Saint-Brieuc,2981280,48.51667,-2.78333,7.34
850,Cherbourg-Octeville,3025466,49.639839,-1.61636,7.74
851,Rouen,2982652,49.44313,1.09932,9.0
852,Beauvais,3034006,49.433331,2.08333,9.6
853,Amiens,3037854,49.900002,2.3,8.53
854,Le Havre,3003796,49.493801,0.10767,9.0
855,Boulogne-sur-Mer,3031133,50.716671000000005,1.61667,9.0
856,Calais,3029162,50.958099,1.85205,8.67
857,Dunkerque,3020686,51.049999,2.36667,8.0
858,Lille,2998324,50.632969,3.05858,8.0
859,Arras,3036784,50.293011,2.78186,8.0
860,Compiegne,3024066,49.417938,2.82606,9.4
861,Laon,3007477,49.566669,3.6166699999999996,8.0
862,Maubeuge,2995150,50.278751,3.97267,7.75
863,Charleville-Mezieres,3026613,49.76667,4.71667,7.0
864,Verdun,2969958,49.166672,5.38333,8.66
865,Patra,255683,38.244438,21.73444,7.54
866,Zagreb,3186886,45.814442,15.977979999999999,0.47
867,Osijek,3193935,45.551109000000004,18.69389,1.0
868,Slavonski Brod,3190586,45.160278000000005,18.01556,0.0
869,Carndonagh,2965761,55.25,-7.2666699999999995,5.45
870,Gaza,281133,31.5,34.466671000000005,12.0
871,Carbonia,2525362,39.167221000000005,8.522219999999999,10.56
872,Capri,3180630,40.550732,14.242629999999998,9.95
873,Firenze,3176959,43.76667,11.25,8.0
874,Parma,3171457,44.802662,10.32898,7.0
875,Kaunas,598316,54.900002,23.9,2.0
876,Klaipeda,598098,55.71722,21.1175,4.0
877,Tangier,2530335,35.780578999999996,-5.81365,12.34
878,Bastia,3034640,42.702782,9.45,9.64
879,Ajaccio,3038334,41.927231,8.73462,11.0
880,Eindhoven,2756253,51.44083,5.47778,8.0
881,Enschede,2756071,52.21833,6.89583,8.51
882,Bucharest,683506,44.432251,26.10626,0.98
883,Cluj-Napoca,681290,46.76667,23.6,-2.0
884,Timisoara,665087,45.749439,21.227221,-1.03
885,Iasi,675810,47.166672,27.6,-3.0
886,Novi Sad,3194360,45.251671,19.836941,1.03
887,Pristina,786714,42.672722,21.16688,1.0
888,Goeteborg,2711537,57.707161,11.96679,4.0
889,Jonkoping,2702979,57.781448,14.156179999999999,1.0
890,Linkoping,2694762,58.410858,15.621570000000002,3.27
891,Orebro,2686657,59.274119999999996,15.2066,3.0
892,Bratislava,3060972,48.148159,17.106741,1.56
893,Kosice,724443,48.713951,21.25808,2.0
894,Nitra,3058531,48.307629,18.084529999999997,1.93
895,Homs,169577,34.726822,36.723389000000005,8.37
896,Aleppo,170063,36.201240999999996,37.161171,5.5
897,Tunis,2464470,36.81897,10.16579,9.37
898,Istanbul,745044,41.01384,28.949659000000004,4.47
899,Kiev,703448,50.433334,30.516665999999997,-3.0
900,Szczecin,3083829,53.428940000000004,14.553020000000002,7.0
901,Greifswald,2917788,54.099998,13.383329999999999,6.12
902,Neubrandenburg,2866135,53.566669,13.266670000000001,5.72
903,Zwolle,2743477,52.512501,6.0944400000000005,9.0
904,Are,2725432,63.39835,13.08019,-8.9
905,Storuman,2671530,65.095901,17.11731,-8.0
906,Arjeplog,2725372,66.051727,17.886060999999998,-14.88
907,Jokkmokk,2702997,66.606651,19.82324,-16.78
908,Apatity,581357,67.56414000000001,33.403099,-12.95
909,Kovdor,543508,67.566162,30.475759999999998,-13.88
910,Longyearbyen,2729907,78.218597,15.640070000000001,-10.0
911,Spitsbergen,7535696,78.052902,17.709961,-10.0
912,Vík,2625252,63.419701,-19.00831,-12.13
913,Saudarkrokur,2627309,65.74610899999999,-19.639441,-0.6
914,Raufarhöfn,2627642,66.44265,-15.9486,0.25
915,Reyðarfjörður,2632428,65.031639,-14.21832,-2.0
916,Miðgarðar,2628310,66.537712,-17.951179999999997,0.95
917,Norðurland Eystra,3337404,65.5,-17.0,-2.0
918,Norðurland Vestra,3337403,65.33332800000001,-20.0,-8.68
919,Austurland,3337405,65.0,-15.0,-2.0
920,Namsos,3145023,64.46624,11.49572,-5.95
921,Kandalaksha,553190,67.162003,32.412289,-11.8
922,Lovozero,533933,68.004997,35.011665,-13.35
923,Benghazi,88319,32.116669,20.066669,14.35
924,Surt,2210554,31.208920000000003,16.588659,12.85
925,Misratah,2214846,32.375351,15.09254,12.07
926,Waddan,2209055,29.1614,16.139039999999998,8.87
927,Tobruk,81302,32.083611,23.976391,10.4
928,Sabha,2212775,27.037661,14.428320000000001,7.0
929,Awjilah,88533,29.108061,21.286939999999998,10.05
930,Al Jawf,88962,24.1989,23.29093,8.75
931,Bani Suwayf,359173,29.074409000000003,31.097851000000002,9.25
932,Asyut,359783,27.18096,31.18368,13.0
933,Siwah,347863,29.20409,25.51952,9.3
934,Athlone,2966839,53.433331,-7.95,5.0
935,Kinlochbervie,2645401,58.458691,-5.04332,3.5
936,Oban,2641108,56.412689,-5.470619999999999,4.6
937,Stranraer,2636719,54.90234,-5.02731,5.0
938,Berwick-Upon-Tweed,2655819,55.783329,-2.0,6.0
939,Brighton,2654710,50.828381,-0.13947,7.66
940,Oxford,2640729,51.75222,-1.25596,7.57
941,Llanidloes,2643990,52.449771999999996,-3.53997,5.0
942,Le Creusot,3004427,46.807140000000004,4.41632,10.0
